{
  "leagues": [
    {
      "name": "Alberni Valley Roller Girls Society",
      "country": "Canada",
      "city": "Port Alberni",
      "lat": 49.2343,
      "long": -124.806,
      "region": "Canada",
      "logo": "alberni_valley_roller_girls_society.jpg",
      "teams": [
        {
          "name": "All-Stars",
          "ranking": null,
          "ranking_date": null,
          "fts_code": 17347
        }
      ]
    },
    {
      "name": "Anchor City Rollers",
      "country": "Canada",
      "city": "Halifax",
      "lat": 44.6486,
      "long": -63.586,
      "region": "Canada",
      "logo": "anchor_city_rollers.jpg",
      "teams": [
        {
          "name": "ACR: Black Rock Bandits",
          "ranking": null,
          "ranking_date": null,
          "fts_code": 12441
        },
        {
          "name": "ACR: Dead Ringers",
          "ranking": null,
          "ranking_date": null,
          "fts_code": 12440
        },
        {
          "name": "ACR: Dockyard Brawlers",
          "ranking": null,
          "ranking_date": null,
          "fts_code": 55713
        },
        {
          "name": "Harbour Grudges",
          "ranking": null,
          "ranking_date": null,
          "fts_code": 9813
        }
      ]
    },
    {
      "name": "Aurora Boriellas Roller Derby",
      "country": "Canada",
      "city": "High Level",
      "lat": 58.5166,
      "long": -117.133,
      "region": "Canada",
      "logo": "aurora_boriellas_roller_derby.jpg",
      "teams": [
        {
          "name": "All-Stars",
          "ranking": null,
          "ranking_date": null,
          "fts_code": 65025
        }
      ]
    },
    {
      "name": "Badlands Hellraisers Roller Derby",
      "country": "Canada",
      "city": "Drumheller",
      "lat": 51.4662,
      "long": -112.705,
      "region": "Canada",
      "logo": "badlands_hellraisers_roller_derby.jpg",
      "teams": [
        {
          "name": "Hellraisers",
          "ranking": null,
          "ranking_date": null,
          "fts_code": 71650
        }
      ]
    },
    {
      "name": "Battlefords Roller Derby League",
      "country": "Canada",
      "city": "North Battleford",
      "lat": 52.7761,
      "long": -108.3,
      "region": "Canada",
      "logo": "battlefords_roller_derby_league.jpg",
      "teams": [
        {
          "name": "Rubby Rollers",
          "ranking": null,
          "ranking_date": null,
          "fts_code": 35936
        }
      ]
    },
    {
      "name": "Belle City Roller Girls",
      "country": "Canada",
      "city": "Brantford",
      "lat": 43.141,
      "long": -80.2662,
      "region": "Canada",
      "logo": "belle_city_roller_girls.jpg",
      "teams": [
        {
          "name": "Belles of the Brawl",
          "ranking": null,
          "ranking_date": null,
          "fts_code": 9799
        }
      ]
    },
    {
      "name": "Belleville Roller Derby",
      "country": "Canada",
      "city": "Belleville",
      "lat": 44.1625,
      "long": -77.3877,
      "region": "Canada",
      "logo": "belleville_roller_derby.jpg",
      "teams": [
        {
          "name": "Belleville Bombshells",
          "ranking": null,
          "ranking_date": null,
          "fts_code": 48641
        }
      ]
    },
    {
      "name": "Bootleg City Roller Derby",
      "country": "Canada",
      "city": "Charlottetown",
      "lat": 46.239,
      "long": -63.1341,
      "region": "Canada",
      "logo": "bootleg_city_roller_derby.jpg",
      "teams": [
        {
          "name": "BCRD: Bootleg Betties",
          "ranking": null,
          "ranking_date": null,
          "fts_code": 66792
        },
        {
          "name": "Moonshine Maidens",
          "ranking": null,
          "ranking_date": null,
          "fts_code": 35369
        }
      ]
    },
    {
      "name": "Borderland Roller Derby",
      "country": "Canada",
      "city": "Fort Frances",
      "lat": 48.6114,
      "long": -93.3968,
      "region": "Canada",
      "logo": "borderland_roller_derby.jpg",
      "teams": [
        {
          "name": "Fort Freakshow",
          "ranking": null,
          "ranking_date": null,
          "fts_code": 9800
        }
      ]
    },
    {
      "name": "Bow Valley Roller Derby",
      "country": "Canada",
      "city": "Canmore",
      "lat": 51.0866,
      "long": -115.348,
      "region": "Canada",
      "logo": "bow_valley_roller_derby.jpg",
      "teams": [
        {
          "name": "Lady Macs",
          "ranking": null,
          "ranking_date": null,
          "fts_code": 13766
        }
      ]
    },
    {
      "name": "Brass Knuckle Derby Dames",
      "country": "Canada",
      "city": "Nanaimo",
      "lat": 49.1637,
      "long": -123.938,
      "region": "Canada",
      "logo": "brass_knuckle_derby_dames.jpg",
      "teams": [
        {
          "name": "All-Stars",
          "ranking": null,
          "ranking_date": null,
          "fts_code": 35138
        }
      ]
    },
    {
      "name": "Brick House Betties",
      "country": "Canada",
      "city": "Cumberland",
      "lat": 45.5167,
      "long": -75.4108,
      "region": "Canada",
      "logo": "brick_house_betties.jpg",
      "teams": [
        {
          "name": "All-Stars",
          "ranking": null,
          "ranking_date": null,
          "fts_code": 19542
        }
      ]
    },
    {
      "name": "Calgary Roller Derby",
      "country": "Canada",
      "city": "Calgary",
      "lat": 51.0534,
      "long": -114.063,
      "region": "Canada",
      "logo": "calgary_roller_derby.jpg",
      "teams": [
        {
          "name": "CRD: Thrashin' Lassies",
          "ranking": null,
          "ranking_date": null,
          "fts_code": 9271
        },
        {
          "name": "CRD: Cut Throat Car Hops",
          "ranking": null,
          "ranking_date": null,
          "fts_code": 9272
        },
        {
          "name": "CRD: B-52 Bellas",
          "ranking": null,
          "ranking_date": null,
          "fts_code": 9861
        },
        {
          "name": "CRD: Jane Deere",
          "ranking": null,
          "ranking_date": null,
          "fts_code": 69181
        },
        {
          "name": "All-Stars",
          "ranking": null,
          "ranking_date": null,
          "fts_code": 9270
        }
      ]
    },
    {
      "name": "Cape Breton Roller Derby",
      "country": "Canada",
      "city": "Sydney",
      "lat": 46.1379,
      "long": -60.1941,
      "region": "Canada",
      "logo": "cape_breton_roller_derby.jpg",
      "teams": [
        {
          "name": "All-Stars",
          "ranking": null,
          "ranking_date": null,
          "fts_code": 36479
        }
      ]
    },
    {
      "name": "Capital City Rollers",
      "country": "Canada",
      "city": "Fredericton",
      "lat": 45.9664,
      "long": -66.6459,
      "region": "Canada",
      "logo": "capital_city_rollers.jpg",
      "teams": [
        {
          "name": "Spitfires",
          "ranking": null,
          "ranking_date": null,
          "fts_code": 9801
        }
      ]
    },
    {
      "name": "Chinook City Roller Derby (Women's)",
      "country": "Canada",
      "city": "Calgary",
      "lat": 51.0534,
      "long": -114.063,
      "region": "Canada",
      "logo": "chinook_city_roller_derby_(women's).jpg",
      "teams": [
        {
          "name": "CCRD: The Bonnie Situation",
          "ranking": null,
          "ranking_date": null,
          "fts_code": 65024
        },
        {
          "name": "Kill Jills",
          "ranking": null,
          "ranking_date": null,
          "fts_code": 10424
        }
      ]
    },
    {
      "name": "Crow City Roller Girls",
      "country": "Canada",
      "city": "Chatham",
      "lat": 42.4052,
      "long": -82.1915,
      "region": "Canada",
      "logo": "crow_city_roller_girls.jpg",
      "teams": [
        {
          "name": "All-Stars",
          "ranking": null,
          "ranking_date": null,
          "fts_code": 33227
        }
      ]
    },
    {
      "name": "Dam City Rollers",
      "country": "Canada",
      "city": "Castlegar",
      "lat": 49.3161,
      "long": -117.664,
      "region": "Canada",
      "logo": "dam_city_rollers.jpg",
      "teams": [
        {
          "name": "Dam City Rollers",
          "ranking": null,
          "ranking_date": null,
          "fts_code": 9924
        }
      ]
    },
    {
      "name": "Diamond City Roller Derby",
      "country": "Canada",
      "city": "Yellowknife",
      "lat": 62.4541,
      "long": -114.372,
      "region": "Canada",
      "logo": "diamond_city_roller_derby.jpg",
      "teams": [
        {
          "name": "All-Stars",
          "ranking": null,
          "ranking_date": null,
          "fts_code": 68797
        }
      ]
    },
    {
      "name": "Dieppe Roller Derby",
      "country": "Canada",
      "city": "Dieppe",
      "lat": 46.0945,
      "long": -64.7355,
      "region": "Canada",
      "logo": "dieppe_roller_derby.jpg",
      "teams": [
        {
          "name": "Hits n' Sass",
          "ranking": null,
          "ranking_date": null,
          "fts_code": 13761
        }
      ]
    },
    {
      "name": "Durham Region Roller Derby",
      "country": "Canada",
      "city": "Durham",
      "lat": 44.1749,
      "long": -80.8139,
      "region": "Canada",
      "logo": "durham_region_roller_derby.jpg",
      "teams": [
        {
          "name": "DRRD: DRRD'y Farmers",
          "ranking": null,
          "ranking_date": null,
          "fts_code": 15942
        },
        {
          "name": "DRRD: Motor City Madames",
          "ranking": null,
          "ranking_date": null,
          "fts_code": 9947
        },
        {
          "name": "Atom Smashers",
          "ranking": null,
          "ranking_date": null,
          "fts_code": 12105
        }
      ]
    },
    {
      "name": "E-Ville Roller Derby",
      "country": "Canada",
      "city": "Edmonton",
      "lat": 53.5354,
      "long": -113.508,
      "region": "Canada",
      "logo": "e-ville_roller_derby.jpg",
      "teams": [
        {
          "name": "EVRD: Slice Girls",
          "ranking": null,
          "ranking_date": null,
          "fts_code": 9866
        },
        {
          "name": "EVRD: Las Pistolitas",
          "ranking": null,
          "ranking_date": null,
          "fts_code": 9867
        },
        {
          "name": "EVRD: Berzerkhers",
          "ranking": null,
          "ranking_date": null,
          "fts_code": 9868
        },
        {
          "name": "EVRD: Living Dead",
          "ranking": null,
          "ranking_date": null,
          "fts_code": 58576
        },
        {
          "name": "E-Ville Dead",
          "ranking": null,
          "ranking_date": null,
          "fts_code": 9304
        }
      ]
    },
    {
      "name": "East Kootenay Roller Derby League",
      "country": "Canada",
      "city": "Elkford",
      "lat": 50.0244,
      "long": -114.922,
      "region": "Canada",
      "logo": "east_kootenay_roller_derby_league.jpg",
      "teams": [
        {
          "name": "EKRDL: Wildcat Brawlers",
          "ranking": null,
          "ranking_date": null,
          "fts_code": 46266
        },
        {
          "name": "EKRDL: Bavarian Barbarians",
          "ranking": null,
          "ranking_date": null,
          "fts_code": 12688
        },
        {
          "name": "All-Stars",
          "ranking": null,
          "ranking_date": null,
          "fts_code": 12627
        }
      ]
    },
    {
      "name": "Enderby Roller Derby Association",
      "country": "Canada",
      "city": "Enderby",
      "lat": 50.5504,
      "long": -119.14,
      "region": "Canada",
      "logo": "enderby_roller_derby_association.jpg",
      "teams": [
        {
          "name": "River Town Rollergirls",
          "ranking": null,
          "ranking_date": null,
          "fts_code": 9804
        }
      ]
    },
    {
      "name": "Energetic City Roller Derby Association",
      "country": "Canada",
      "city": "Fort St. John",
      "lat": 56.2524,
      "long": -120.847,
      "region": "Canada",
      "logo": "energetic_city_roller_derby_association.jpg",
      "teams": [
        {
          "name": "ECRDA: Killbillies B Squad",
          "ranking": null,
          "ranking_date": null,
          "fts_code": 94114
        },
        {
          "name": "Killbillies",
          "ranking": null,
          "ranking_date": null,
          "fts_code": 11592
        }
      ]
    },
    {
      "name": "Eves of Destruction",
      "country": "Canada",
      "city": "Victoria",
      "lat": 47.7678,
      "long": -53.2212,
      "region": "Canada",
      "logo": "eves_of_destruction.jpg",
      "teams": [
        {
          "name": "EoD: Hard Cores",
          "ranking": null,
          "ranking_date": null,
          "fts_code": 47063
        },
        {
          "name": "EoD: Belles of the Brawl",
          "ranking": null,
          "ranking_date": null,
          "fts_code": 18585
        },
        {
          "name": "EoD: Margarita Villains",
          "ranking": null,
          "ranking_date": null,
          "fts_code": 11516
        },
        {
          "name": "The A Team",
          "ranking": null,
          "ranking_date": null,
          "fts_code": 9805
        }
      ]
    },
    {
      "name": "Fernie Roller Derby League",
      "country": "Canada",
      "city": "Fernie",
      "lat": 49.5041,
      "long": -115.063,
      "region": "Canada",
      "logo": "fernie_roller_derby_league.jpg",
      "teams": [
        {
          "name": "Avalanche City All Stars",
          "ranking": null,
          "ranking_date": null,
          "fts_code": 30921
        }
      ]
    },
    {
      "name": "Festival City Rollergirls",
      "country": "Canada",
      "city": "Stratford",
      "lat": 46.2171,
      "long": -63.0893,
      "region": "Canada",
      "logo": "festival_city_rollergirls.jpg",
      "teams": [
        {
          "name": "Ravens of Ruin",
          "ranking": null,
          "ranking_date": null,
          "fts_code": 63008
        },
        {
          "name": "The Decapulettes",
          "ranking": null,
          "ranking_date": null,
          "fts_code": 40704
        }
      ]
    },
    {
      "name": "Fog City Rollers",
      "country": "Canada",
      "city": "St. John's",
      "lat": 47.5617,
      "long": -52.7152,
      "region": "Canada",
      "logo": "fog_city_rollers.jpg",
      "teams": [
        {
          "name": "FCR: Portside Pirates",
          "ranking": null,
          "ranking_date": null,
          "fts_code": 47864
        },
        {
          "name": "Shipyard Sirens",
          "ranking": null,
          "ranking_date": null,
          "fts_code": 9841
        }
      ]
    },
    {
      "name": "Foothills Roller Derby Association",
      "country": "Canada",
      "city": "High River",
      "lat": 50.5834,
      "long": -113.869,
      "region": "Canada",
      "logo": "foothills_roller_derby_association.jpg",
      "teams": [
        {
          "name": "Damnsels",
          "ranking": null,
          "ranking_date": null,
          "fts_code": 9806
        }
      ]
    },
    {
      "name": "Forest City Roller Derby",
      "country": "Canada",
      "city": "London",
      "lat": 42.9885,
      "long": -81.2467,
      "region": "Canada",
      "logo": "forest_city_roller_derby.jpg",
      "teams": [
        {
          "name": "B-Line Activate",
          "ranking": null,
          "ranking_date": null,
          "fts_code": 52413
        },
        {
          "name": "FCRD: Thames Fatales",
          "ranking": null,
          "ranking_date": null,
          "fts_code": 9869
        },
        {
          "name": "FCRD: Thicket",
          "ranking": null,
          "ranking_date": null,
          "fts_code": 109531
        },
        {
          "name": "Timber Rollers",
          "ranking": null,
          "ranking_date": null,
          "fts_code": 9807
        }
      ]
    },
    {
      "name": "Fort McMurray Roller Derby League",
      "country": "Canada",
      "city": "Fort McMurray",
      "lat": 56.7291,
      "long": -111.389,
      "region": "Canada",
      "logo": "fort_mcmurray_roller_derby_league.jpg",
      "teams": [
        {
          "name": "Tar Sand Betties",
          "ranking": null,
          "ranking_date": null,
          "fts_code": 9850
        }
      ]
    },
    {
      "name": "Fraser Valley Roller Derby Association",
      "country": "Canada",
      "city": "Chilliwack",
      "lat": 49.1576,
      "long": -121.951,
      "region": "Canada",
      "logo": "fraser_valley_roller_derby_association.jpg",
      "teams": [
        {
          "name": "Voodoo Dollz",
          "ranking": null,
          "ranking_date": null,
          "fts_code": 9853
        }
      ]
    },
    {
      "name": "G-Town Beat Down",
      "country": "Canada",
      "city": "Grande Prairie",
      "lat": 55.1709,
      "long": -118.795,
      "region": "Canada",
      "logo": "g-town_beat_down.jpg",
      "teams": [
        {
          "name": "G-Town Beat Down",
          "ranking": null,
          "ranking_date": null,
          "fts_code": 9808
        }
      ]
    },
    {
      "name": "Gapland Rollers",
      "country": "Canada",
      "city": "Rocanville",
      "lat": 50.3818,
      "long": -101.701,
      "region": "Canada",
      "logo": "gapland_rollers.jpg",
      "teams": [
        {
          "name": "Gapland Rollers",
          "ranking": null,
          "ranking_date": null,
          "fts_code": 9809
        }
      ]
    },
    {
      "name": "Gas City Roller Derby Association (Women)",
      "country": "Canada",
      "city": "Medicine Hat",
      "lat": 50.043,
      "long": -110.679,
      "region": "Canada",
      "logo": "gas_city_roller_derby_association_(women).jpg",
      "teams": [
        {
          "name": "GCRDA: The Regulators",
          "ranking": null,
          "ranking_date": null,
          "fts_code": 26957
        },
        {
          "name": "Gas City Rollers",
          "ranking": null,
          "ranking_date": null,
          "fts_code": 68460
        }
      ]
    },
    {
      "name": "Gold City Roller Girls",
      "country": "Canada",
      "city": "Timmins",
      "lat": 48.4774,
      "long": -81.3305,
      "region": "Canada",
      "logo": "gold_city_roller_girls.jpg",
      "teams": [
        {
          "name": "Gold Miners Daughters",
          "ranking": null,
          "ranking_date": null,
          "fts_code": 55496
        }
      ]
    },
    {
      "name": "Gold Pain City Derby Girls",
      "country": "Canada",
      "city": "Quesnel",
      "lat": 52.9794,
      "long": -122.494,
      "region": "Canada",
      "logo": "gold_pain_city_derby_girls.jpg",
      "teams": [
        {
          "name": "Gold Pain Roller Girls",
          "ranking": null,
          "ranking_date": null,
          "fts_code": 9811
        }
      ]
    },
    {
      "name": "Grande Prairie Roller Derby",
      "country": "Canada",
      "city": "Grande Prairie",
      "lat": 55.1709,
      "long": -118.795,
      "region": "Canada",
      "logo": "grande_prairie_roller_derby.jpg",
      "teams": [
        {
          "name": "RadLeak Rollers",
          "ranking": null,
          "ranking_date": null,
          "fts_code": 9812
        }
      ]
    },
    {
      "name": "Greater Sudbury Roller Derby",
      "country": "Canada",
      "city": "Sudbury",
      "lat": 46.4927,
      "long": -80.9913,
      "region": "Canada",
      "logo": "greater_sudbury_roller_derby.jpg",
      "teams": [
        {
          "name": "The Tatas",
          "ranking": null,
          "ranking_date": null,
          "fts_code": 14979
        }
      ]
    },
    {
      "name": "Grey Bruce Roller Derby",
      "country": "Canada",
      "city": "Owen Sound",
      "lat": 44.5689,
      "long": -80.9494,
      "region": "Canada",
      "logo": "grey_bruce_roller_derby.jpg",
      "teams": [
        {
          "name": "Highland Dames",
          "ranking": null,
          "ranking_date": null,
          "fts_code": 34562
        }
      ]
    },
    {
      "name": "Grimshaw Grim Reapers Roller Derby Team",
      "country": "Canada",
      "city": "Grimshaw",
      "lat": 56.1879,
      "long": -117.608,
      "region": "Canada",
      "logo": "grimshaw_grim_reapers_roller_derby_team.jpg",
      "teams": [
        {
          "name": "Grim Reapers",
          "ranking": null,
          "ranking_date": null,
          "fts_code": 36482
        }
      ]
    },
    {
      "name": "Hamilton Area Roller Derby",
      "country": "Canada",
      "city": "Hamilton",
      "lat": 43.2552,
      "long": -79.8683,
      "region": "Canada",
      "logo": "hamilton_area_roller_derby.jpg",
      "teams": [
        {
          "name": "HARD: Molotov Girls",
          "ranking": null,
          "ranking_date": null,
          "fts_code": 71928
        },
        {
          "name": "HARD: The Hamilton Bombers",
          "ranking": null,
          "ranking_date": null,
          "fts_code": 59511
        },
        {
          "name": "Los Coños of Hamilton",
          "ranking": null,
          "ranking_date": null,
          "fts_code": 36480
        }
      ]
    },
    {
      "name": "Hammer City Roller Derby",
      "country": "Canada",
      "city": "Hamilton",
      "lat": 43.2552,
      "long": -79.8683,
      "region": "Canada",
      "logo": "hammer_city_roller_derby.jpg",
      "teams": [
        {
          "name": "Hammer City Pressure",
          "ranking": null,
          "ranking_date": null,
          "fts_code": 32956
        },
        {
          "name": "HCRD: Hammer City Hassle",
          "ranking": null,
          "ranking_date": null,
          "fts_code": 91264
        },
        {
          "name": "Hammer City Eh! Team",
          "ranking": null,
          "ranking_date": null,
          "fts_code": 3460
        }
      ]
    },
    {
      "name": "Harbour City Rollers",
      "country": "Canada",
      "city": "Nanaimo",
      "lat": 49.1637,
      "long": -123.938,
      "region": "Canada",
      "logo": "harbour_city_rollers.jpg",
      "teams": [
        {
          "name": "HCR: Ship Rex",
          "ranking": null,
          "ranking_date": null,
          "fts_code": 102612
        },
        {
          "name": "Hydras",
          "ranking": null,
          "ranking_date": null,
          "fts_code": 9815
        }
      ]
    },
    {
      "name": "Heartland Roller Derby Association",
      "country": "Canada",
      "city": "Fort Saskatchewan",
      "lat": 53.7129,
      "long": -113.214,
      "region": "Canada",
      "logo": "heartland_roller_derby_association.jpg",
      "teams": [
        {
          "name": "Boneshakers",
          "ranking": null,
          "ranking_date": null,
          "fts_code": 96175
        }
      ]
    },
    {
      "name": "Highland Derby Dolls",
      "country": "Canada",
      "city": "Pictou",
      "lat": 45.6777,
      "long": -62.7083,
      "region": "Canada",
      "logo": "highland_derby_dolls.jpg",
      "teams": [
        {
          "name": "Kickin' Vixens",
          "ranking": null,
          "ranking_date": null,
          "fts_code": 60982
        }
      ]
    },
    {
      "name": "Hogtown Roller Derby",
      "country": "Canada",
      "city": "Toronto",
      "lat": 43.6539,
      "long": -79.3873,
      "region": "Canada",
      "logo": "hogtown_roller_derby.jpg",
      "teams": [
        {
          "name": "HRD: Debu-Taunts",
          "ranking": null,
          "ranking_date": null,
          "fts_code": 8116
        },
        {
          "name": "Horror",
          "ranking": null,
          "ranking_date": null,
          "fts_code": 8115
        }
      ]
    },
    {
      "name": "Humboldt Roller Derby League",
      "country": "Canada",
      "city": "Humboldt",
      "lat": 52.202,
      "long": -105.123,
      "region": "Canada",
      "logo": "humboldt_roller_derby_league.jpg",
      "teams": [
        {
          "name": "All-Stars",
          "ranking": null,
          "ranking_date": null,
          "fts_code": 25118
        }
      ]
    },
    {
      "name": "Hwy 14 Derby Association",
      "country": "Canada",
      "city": "Holden",
      "lat": 53.2333,
      "long": -112.233,
      "region": "Canada",
      "logo": "hwy_14_derby_association.jpg",
      "teams": [
        {
          "name": "Steamrollers",
          "ranking": null,
          "ranking_date": null,
          "fts_code": 53151
        }
      ]
    },
    {
      "name": "Kahnawake Roller Derby",
      "country": "Canada",
      "city": "Kahnawake",
      "lat": 45.4151,
      "long": -73.6774,
      "region": "Canada",
      "logo": "kahnawake_roller_derby.jpg",
      "teams": [
        {
          "name": "Wagon Burners",
          "ranking": null,
          "ranking_date": null,
          "fts_code": 20365
        }
      ]
    },
    {
      "name": "Kenora Roller Derby League",
      "country": "Canada",
      "city": "Kenora",
      "lat": 49.7617,
      "long": -94.4825,
      "region": "Canada",
      "logo": "kenora_roller_derby_league.jpg",
      "teams": [
        {
          "name": "Northern Furies",
          "ranking": null,
          "ranking_date": null,
          "fts_code": 52477
        }
      ]
    },
    {
      "name": "Killer Rollbots",
      "country": "Canada",
      "city": "Invermere",
      "lat": 50.5048,
      "long": -116.03,
      "region": "Canada",
      "logo": "killer_rollbots.jpg",
      "teams": [
        {
          "name": "Killer Rollbots",
          "ranking": null,
          "ranking_date": null,
          "fts_code": 12692
        }
      ]
    },
    {
      "name": "Killjoys",
      "country": "Canada",
      "city": "Nelson",
      "lat": 49.4948,
      "long": -117.29,
      "region": "Canada",
      "logo": "killjoys.jpg",
      "teams": [
        {
          "name": "Killjoys",
          "ranking": null,
          "ranking_date": null,
          "fts_code": 9927
        }
      ]
    },
    {
      "name": "Kindersley Roller Derby Association",
      "country": "Canada",
      "city": "Kindersley",
      "lat": 51.4687,
      "long": -109.158,
      "region": "Canada",
      "logo": "kindersley_roller_derby_association.jpg",
      "teams": [
        {
          "name": "Crude Hitters",
          "ranking": null,
          "ranking_date": null,
          "fts_code": 71218
        }
      ]
    },
    {
      "name": "Kingston Roller Derby",
      "country": "Canada",
      "city": "Kingston",
      "lat": 44.2306,
      "long": -76.4814,
      "region": "Canada",
      "logo": "kingston_roller_derby.jpg",
      "teams": [
        {
          "name": "Kingston Smash Squad",
          "ranking": null,
          "ranking_date": null,
          "fts_code": 83664
        },
        {
          "name": "KRD: The Skateful Dead",
          "ranking": null,
          "ranking_date": null,
          "fts_code": 78548
        },
        {
          "name": "The Rogue Warriors",
          "ranking": null,
          "ranking_date": null,
          "fts_code": 9816
        }
      ]
    },
    {
      "name": "Kirkland Lake Roller Derby",
      "country": "Canada",
      "city": "Kirkland Lake",
      "lat": 48.1541,
      "long": -80.0313,
      "region": "Canada",
      "logo": "kirkland_lake_roller_derby.jpg",
      "teams": [
        {
          "name": "Hard Rock'n Rollers",
          "ranking": null,
          "ranking_date": null,
          "fts_code": 13759
        }
      ]
    },
    {
      "name": "Lake City Derby Girls",
      "country": "Canada",
      "city": "Williams Lake",
      "lat": 52.129,
      "long": -122.14,
      "region": "Canada",
      "logo": "lake_city_derby_girls.jpg",
      "teams": [
        {
          "name": "Lake City Derby Girls",
          "ranking": null,
          "ranking_date": null,
          "fts_code": 9817
        }
      ]
    },
    {
      "name": "Lakeland Ladykillers Roller Derby",
      "country": "Canada",
      "city": "Cold Lake",
      "lat": 54.4604,
      "long": -110.193,
      "region": "Canada",
      "logo": "lakeland_ladykillers_roller_derby.jpg",
      "teams": [
        {
          "name": "Lakeland Ladykillers",
          "ranking": null,
          "ranking_date": null,
          "fts_code": 9818
        }
      ]
    },
    {
      "name": "Lambton Crude Oil Crushers",
      "country": "Canada",
      "city": "Lambton Shores",
      "lat": 43.1667,
      "long": -81.9331,
      "region": "Canada",
      "logo": "lambton_crude_oil_crushers.jpg",
      "teams": [
        {
          "name": "Crude Oil Crushers",
          "ranking": null,
          "ranking_date": null,
          "fts_code": 10383
        }
      ]
    },
    {
      "name": "Les Bûches",
      "country": "Canada",
      "city": "Québec",
      "lat": 46.8259,
      "long": -71.2353,
      "region": "Canada",
      "logo": "les_bûches.jpg",
      "teams": [
        {
          "name": "All-stars",
          "ranking": null,
          "ranking_date": null,
          "fts_code": 64666
        }
      ]
    },
    {
      "name": "Lethbridge Roller Derby Guild",
      "country": "Canada",
      "city": "Lethbridge",
      "lat": 49.6942,
      "long": -112.852,
      "region": "Canada",
      "logo": "lethbridge_roller_derby_guild.jpg",
      "teams": [
        {
          "name": "Deathbridge Derby Dames",
          "ranking": null,
          "ranking_date": null,
          "fts_code": 9819
        }
      ]
    },
    {
      "name": "Lil Chicago Roller Derby",
      "country": "Canada",
      "city": "Moose Jaw",
      "lat": 50.4015,
      "long": -105.543,
      "region": "Canada",
      "logo": "lil_chicago_roller_derby.jpg",
      "teams": [
        {
          "name": "Jawbreakers",
          "ranking": null,
          "ranking_date": null,
          "fts_code": 9820
        }
      ]
    },
    {
      "name": "Limestone CrusHers Roller Derby",
      "country": "Canada",
      "city": "Kingston",
      "lat": 44.2306,
      "long": -76.4814,
      "region": "Canada",
      "logo": "limestone_crushers_roller_derby.jpg",
      "teams": [
        {
          "name": "Limestone CrusHers",
          "ranking": null,
          "ranking_date": null,
          "fts_code": 9821
        }
      ]
    },
    {
      "name": "Lindsay Roller Derby",
      "country": "Canada",
      "city": "Lindsay",
      "lat": 44.355,
      "long": -78.7405,
      "region": "Canada",
      "logo": "lindsay_roller_derby.jpg",
      "teams": [
        {
          "name": "All-Stars",
          "ranking": null,
          "ranking_date": null,
          "fts_code": 17799
        }
      ]
    },
    {
      "name": "London Middlesex Roller Derby",
      "country": "Canada",
      "city": "London",
      "lat": 42.9885,
      "long": -81.2467,
      "region": "Canada",
      "logo": "london_middlesex_roller_derby.jpg",
      "teams": [
        {
          "name": "Backlash Bettys",
          "ranking": null,
          "ranking_date": null,
          "fts_code": 63015
        },
        {
          "name": "Violent Femmes",
          "ranking": null,
          "ranking_date": null,
          "fts_code": 30834
        }
      ]
    },
    {
      "name": "Meridian Roller Derby League",
      "country": "Canada",
      "city": "Lloydminster",
      "lat": 53.2799,
      "long": -110.009,
      "region": "Canada",
      "logo": "meridian_roller_derby_league.jpg",
      "teams": [
        {
          "name": "Angels of Assault",
          "ranking": null,
          "ranking_date": null,
          "fts_code": 53135
        }
      ]
    },
    {
      "name": "Midwest Mavericks Regional Roller Derby",
      "country": "Canada",
      "city": "Lloydminster",
      "lat": 53.2799,
      "long": -110.009,
      "region": "Canada",
      "logo": "midwest_mavericks_regional_roller_derby.jpg",
      "teams": [
        {
          "name": "Midwest Mavericks",
          "ranking": null,
          "ranking_date": null,
          "fts_code": 100189
        }
      ]
    },
    {
      "name": "Mile Zero Mercy Roller Girls",
      "country": "Canada",
      "city": "Dawson Creek",
      "lat": 55.7605,
      "long": -120.237,
      "region": "Canada",
      "logo": "mile_zero_mercy_roller_girls.jpg",
      "teams": [
        {
          "name": "All-stars",
          "ranking": null,
          "ranking_date": null,
          "fts_code": 41140
        }
      ]
    },
    {
      "name": "Montreal Roller Derby",
      "country": "Canada",
      "city": "Montreal",
      "lat": 45.4972,
      "long": -73.6104,
      "region": "Canada",
      "logo": "montreal_roller_derby.jpg",
      "teams": [
        {
          "name": "Montreal Smash Squad",
          "ranking": null,
          "ranking_date": null,
          "fts_code": 41224
        },
        {
          "name": "MTLRD: Contrabanditas",
          "ranking": null,
          "ranking_date": null,
          "fts_code": 9876
        },
        {
          "name": "MTLRD: La Racaille",
          "ranking": null,
          "ranking_date": null,
          "fts_code": 9878
        },
        {
          "name": "MTLRD: Les Filles du Roi",
          "ranking": null,
          "ranking_date": null,
          "fts_code": 9877
        },
        {
          "name": "MTLRD: Les Sexpos",
          "ranking": null,
          "ranking_date": null,
          "fts_code": 5076
        },
        {
          "name": "New Skids on the Block",
          "ranking": null,
          "ranking_date": null,
          "fts_code": 3461
        }
      ]
    },
    {
      "name": "Moose Jaw Roller Derby",
      "country": "Canada",
      "city": "Moose Jaw",
      "lat": 50.4015,
      "long": -105.543,
      "region": "Canada",
      "logo": "moose_jaw_roller_derby.jpg",
      "teams": [
        {
          "name": "All-stars",
          "ranking": null,
          "ranking_date": null,
          "fts_code": 36481
        }
      ]
    },
    {
      "name": "Muddy River Rollers",
      "country": "Canada",
      "city": "Moncton",
      "lat": 46.0979,
      "long": -64.8002,
      "region": "Canada",
      "logo": "muddy_river_rollers.jpg",
      "teams": [
        {
          "name": "MRR: Mad Hitters",
          "ranking": null,
          "ranking_date": null,
          "fts_code": 46270
        },
        {
          "name": "Lumbersmacks",
          "ranking": null,
          "ranking_date": null,
          "fts_code": 9823
        }
      ]
    },
    {
      "name": "Nanaimo Nemesis Roller Girls",
      "country": "Canada",
      "city": "Nanaimo",
      "lat": 49.1637,
      "long": -123.938,
      "region": "Canada",
      "logo": "nanaimo_nemesis_roller_girls.jpg",
      "teams": [
        {
          "name": "Nemesis",
          "ranking": null,
          "ranking_date": null,
          "fts_code": 9824
        }
      ]
    },
    {
      "name": "Niagara Roller Derby",
      "country": "Canada",
      "city": "Niagara Falls",
      "lat": 43.1009,
      "long": -79.1153,
      "region": "Canada",
      "logo": "niagara_roller_derby.jpg",
      "teams": [
        {
          "name": "Garden City Rollers",
          "ranking": null,
          "ranking_date": null,
          "fts_code": 39534
        }
      ]
    },
    {
      "name": "Nickel City Roller Derby",
      "country": "Canada",
      "city": "Sudbury",
      "lat": 46.4927,
      "long": -80.9913,
      "region": "Canada",
      "logo": "nickel_city_roller_derby.jpg",
      "teams": [
        {
          "name": "NCRD: Nickels & Dames",
          "ranking": null,
          "ranking_date": null,
          "fts_code": 111211
        },
        {
          "name": "NCRD: Sudbetties",
          "ranking": null,
          "ranking_date": null,
          "fts_code": 9882
        },
        {
          "name": "Sister Slag",
          "ranking": null,
          "ranking_date": null,
          "fts_code": 9825
        }
      ]
    },
    {
      "name": "Nipissing Roller Derby",
      "country": "Canada",
      "city": "Nipissing Township",
      "lat": 46.0663,
      "long": -79.5469,
      "region": "Canada",
      "logo": "nipissing_roller_derby.jpg",
      "teams": [
        {
          "name": "Bombshell Bobbers",
          "ranking": null,
          "ranking_date": null,
          "fts_code": 111210
        }
      ]
    },
    {
      "name": "Norfolk County Roller Derby",
      "country": "Canada",
      "city": "Simcoe",
      "lat": 42.8361,
      "long": -80.3067,
      "region": "Canada",
      "logo": "norfolk_county_roller_derby.jpg",
      "teams": [
        {
          "name": "All-Stars",
          "ranking": null,
          "ranking_date": null,
          "fts_code": 84934
        }
      ]
    },
    {
      "name": "NorSask Roller Derby",
      "country": "Canada",
      "city": "Prince Albert",
      "lat": 53.201,
      "long": -105.749,
      "region": "Canada",
      "logo": "norsask_roller_derby.jpg",
      "teams": [
        {
          "name": "Diefen-Break-Hers",
          "ranking": null,
          "ranking_date": null,
          "fts_code": 31170
        }
      ]
    },
    {
      "name": "North Coast Nightmares",
      "country": "Canada",
      "city": "Terrace Bay",
      "lat": 48.7824,
      "long": -87.1024,
      "region": "Canada",
      "logo": "north_coast_nightmares.jpg",
      "teams": [
        {
          "name": "All-Stars",
          "ranking": null,
          "ranking_date": null,
          "fts_code": 13758
        }
      ]
    },
    {
      "name": "Northumberland Roller Girls",
      "country": "Canada",
      "city": "Bewdley",
      "lat": 44.0888,
      "long": -78.3211,
      "region": "Canada",
      "logo": "northumberland_roller_girls.jpg",
      "teams": [
        {
          "name": "Ganaraska Gravediggers",
          "ranking": null,
          "ranking_date": null,
          "fts_code": 30055
        }
      ]
    },
    {
      "name": "Nuclear Free Roller Derby League",
      "country": "Canada",
      "city": "Red Deer",
      "lat": 52.2698,
      "long": -113.818,
      "region": "Canada",
      "logo": "nuclear_free_roller_derby_league.jpg",
      "teams": [
        {
          "name": "BOOM",
          "ranking": null,
          "ranking_date": null,
          "fts_code": 60061
        }
      ]
    },
    {
      "name": "NWO Roller Girls",
      "country": "Canada",
      "city": "Chilliwack",
      "lat": 49.1576,
      "long": -121.951,
      "region": "Canada",
      "logo": "nwo_roller_girls.jpg",
      "teams": [
        {
          "name": "NWORG: NWO Outsiders",
          "ranking": null,
          "ranking_date": null,
          "fts_code": 48177
        },
        {
          "name": "NWO Wolfpack",
          "ranking": null,
          "ranking_date": null,
          "fts_code": 12982
        }
      ]
    },
    {
      "name": "Oil City Roller Derby",
      "country": "Canada",
      "city": "Edmonton",
      "lat": 53.5354,
      "long": -113.508,
      "region": "Canada",
      "logo": "oil_city_roller_derby.jpg",
      "teams": [
        {
          "name": "OCRD: Dirty Harriets",
          "ranking": null,
          "ranking_date": null,
          "fts_code": 19368
        },
        {
          "name": "OCRD: G.I. Janes",
          "ranking": null,
          "ranking_date": null,
          "fts_code": 9883
        },
        {
          "name": "All-Stars",
          "ranking": null,
          "ranking_date": null,
          "fts_code": 8849
        }
      ]
    },
    {
      "name": "Okanagan Derby Dolls",
      "country": "Canada",
      "city": "Kelowna",
      "lat": 49.8893,
      "long": -119.498,
      "region": "Canada",
      "logo": "okanagan_derby_dolls.jpg",
      "teams": [
        {
          "name": "Okanagan Derby Dolls",
          "ranking": null,
          "ranking_date": null,
          "fts_code": 9887
        }
      ]
    },
    {
      "name": "Okanagan Roller Derby",
      "country": "Canada",
      "city": "Kelowna",
      "lat": 49.8893,
      "long": -119.498,
      "region": "Canada",
      "logo": "okanagan_roller_derby.jpg",
      "teams": [
        {
          "name": "OKRD: Cherry Bombs",
          "ranking": null,
          "ranking_date": null,
          "fts_code": 78923
        },
        {
          "name": "Apple Smacks",
          "ranking": null,
          "ranking_date": null,
          "fts_code": 9826
        }
      ]
    },
    {
      "name": "Okanagan Shuswap Roller Derby Association",
      "country": "Canada",
      "city": "Kelowna",
      "lat": 49.8893,
      "long": -119.498,
      "region": "Canada",
      "logo": "okanagan_shuswap_roller_derby_association.jpg",
      "teams": [
        {
          "name": "Farmers' Slaughters",
          "ranking": null,
          "ranking_date": null,
          "fts_code": 9827
        }
      ]
    },
    {
      "name": "Orangeville Roller Girls",
      "country": "Canada",
      "city": "Orangeville",
      "lat": 43.9194,
      "long": -80.0989,
      "region": "Canada",
      "logo": "orangeville_roller_girls.jpg",
      "teams": [
        {
          "name": "ORG: Fox Force Five",
          "ranking": null,
          "ranking_date": null,
          "fts_code": 51833
        },
        {
          "name": "ORG: Pulp Affliction",
          "ranking": null,
          "ranking_date": null,
          "fts_code": 27572
        },
        {
          "name": "ORG All-Stars: Misfit Militia",
          "ranking": null,
          "ranking_date": null,
          "fts_code": 32377
        }
      ]
    },
    {
      "name": "Ottawa Roller Derby",
      "country": "Canada",
      "city": "Ottawa",
      "lat": 45.4211,
      "long": -75.6904,
      "region": "Canada",
      "logo": "ottawa_roller_derby.jpg",
      "teams": [
        {
          "name": "Bytown Blackhearts",
          "ranking": null,
          "ranking_date": null,
          "fts_code": 9828
        }
      ]
    },
    {
      "name": "Ottawa Valley Roller Derby",
      "country": "Canada",
      "city": "Ottawa",
      "lat": 45.4211,
      "long": -75.6904,
      "region": "Canada",
      "logo": "ottawa_valley_roller_derby.jpg",
      "teams": [
        {
          "name": "OVRD: Capital City Derby Dolls",
          "ranking": null,
          "ranking_date": null,
          "fts_code": 8729
        },
        {
          "name": "Ottawa Valley",
          "ranking": null,
          "ranking_date": null,
          "fts_code": 8060
        }
      ]
    },
    {
      "name": "Peterborough Area Roller Derby",
      "country": "Canada",
      "city": "Peterborough",
      "lat": 44.3048,
      "long": -78.32,
      "region": "Canada",
      "logo": "peterborough_area_roller_derby.jpg",
      "teams": [
        {
          "name": "Riverside Riot Squad",
          "ranking": null,
          "ranking_date": null,
          "fts_code": 33511
        }
      ]
    },
    {
      "name": "Peterborough Roller Derby",
      "country": "Canada",
      "city": "Peterborough",
      "lat": 44.3048,
      "long": -78.32,
      "region": "Canada",
      "logo": "peterborough_roller_derby.jpg",
      "teams": [
        {
          "name": "Peterborough Roller Derby",
          "ranking": null,
          "ranking_date": null,
          "fts_code": 9829
        }
      ]
    },
    {
      "name": "Pile O' Bones Derby Club",
      "country": "Canada",
      "city": "Regina",
      "lat": 50.4487,
      "long": -104.617,
      "region": "Canada",
      "logo": "pile_o'_bones_derby_club.jpg",
      "teams": [
        {
          "name": "PBDC: Wascana Creeps",
          "ranking": null,
          "ranking_date": null,
          "fts_code": 107162
        },
        {
          "name": "PBDC: Lockdown Lolitas",
          "ranking": null,
          "ranking_date": null,
          "fts_code": 9893
        },
        {
          "name": "PBDC: Bone City Beaver Dames",
          "ranking": null,
          "ranking_date": null,
          "fts_code": 9892
        },
        {
          "name": "PBDC: 306th Bombshell Battalion",
          "ranking": null,
          "ranking_date": null,
          "fts_code": 17609
        },
        {
          "name": "PBDC: Gravediggers",
          "ranking": null,
          "ranking_date": null,
          "fts_code": 9894
        },
        {
          "name": "Sugar Skulls",
          "ranking": null,
          "ranking_date": null,
          "fts_code": 9830
        }
      ]
    },
    {
      "name": "PLAP City Rollers",
      "country": "Canada",
      "city": "Portage la Prairie",
      "lat": 49.9724,
      "long": -98.2892,
      "region": "Canada",
      "logo": "plap_city_rollers.jpg",
      "teams": [
        {
          "name": "Headstone Honeys",
          "ranking": null,
          "ranking_date": null,
          "fts_code": 30523
        }
      ]
    },
    {
      "name": "Pow! Town Roller Derby",
      "country": "Canada",
      "city": "Powell River",
      "lat": 49.8356,
      "long": -124.524,
      "region": "Canada",
      "logo": "pow!_town_roller_derby.jpg",
      "teams": [
        {
          "name": "All-Stars",
          "ranking": null,
          "ranking_date": null,
          "fts_code": 31030
        }
      ]
    },
    {
      "name": "Prince Albert Roller Derby",
      "country": "Canada",
      "city": "Prince Albert",
      "lat": 53.201,
      "long": -105.749,
      "region": "Canada",
      "logo": "prince_albert_roller_derby.jpg",
      "teams": [
        {
          "name": "Outlaws",
          "ranking": null,
          "ranking_date": null,
          "fts_code": 36484
        }
      ]
    },
    {
      "name": "Queen City Roller Sports",
      "country": "Canada",
      "city": "Regina",
      "lat": 50.4487,
      "long": -104.617,
      "region": "Canada",
      "logo": "queen_city_roller_sports.jpg",
      "teams": [
        {
          "name": "Regina's Rockin' Roller Derby",
          "ranking": null,
          "ranking_date": null,
          "fts_code": 24085
        }
      ]
    },
    {
      "name": "Red Deer Roller Derby Association",
      "country": "Canada",
      "city": "Red Deer",
      "lat": 52.2698,
      "long": -113.818,
      "region": "Canada",
      "logo": "red_deer_roller_derby_association.jpg",
      "teams": [
        {
          "name": "Belladonnas",
          "ranking": null,
          "ranking_date": null,
          "fts_code": 9833
        }
      ]
    },
    {
      "name": "Red Rock'n Roller Derby",
      "country": "Canada",
      "city": "Charlottetown",
      "lat": 46.239,
      "long": -63.1341,
      "region": "Canada",
      "logo": "red_rock'n_roller_derby.jpg",
      "teams": [
        {
          "name": "All-Stars",
          "ranking": null,
          "ranking_date": null,
          "fts_code": 16325
        }
      ]
    },
    {
      "name": "Redcliff Roller Derby Association",
      "country": "Canada",
      "city": "Redcliff",
      "lat": 50.0833,
      "long": -110.783,
      "region": "Canada",
      "logo": "redcliff_roller_derby_association.jpg",
      "teams": [
        {
          "name": "Foxy Rollers",
          "ranking": null,
          "ranking_date": null,
          "fts_code": 24279
        }
      ]
    },
    {
      "name": "Redneck Daisies",
      "country": "Canada",
      "city": "Lumby",
      "lat": 50.2507,
      "long": -118.962,
      "region": "Canada",
      "logo": "redneck_daisies.jpg",
      "teams": [
        {
          "name": "Redneck Daisies",
          "ranking": null,
          "ranking_date": null,
          "fts_code": 9834
        }
      ]
    },
    {
      "name": "Reign Valley Vixens",
      "country": "Canada",
      "city": "Abbotsford",
      "lat": 49.0521,
      "long": -122.329,
      "region": "Canada",
      "logo": "reign_valley_vixens.jpg",
      "teams": [
        {
          "name": "Reign Valley Vixens Vets",
          "ranking": null,
          "ranking_date": null,
          "fts_code": 9835
        }
      ]
    },
    {
      "name": "Renegade Derby Dames",
      "country": "Canada",
      "city": "Alliston",
      "lat": 44.1524,
      "long": -79.8734,
      "region": "Canada",
      "logo": "renegade_derby_dames.jpg",
      "teams": [
        {
          "name": "RDD: Bombshell Battalion",
          "ranking": null,
          "ranking_date": null,
          "fts_code": 14263
        },
        {
          "name": "Striking Vikings",
          "ranking": null,
          "ranking_date": null,
          "fts_code": 9836
        }
      ]
    },
    {
      "name": "Renfrew County Roller Derby",
      "country": "Canada",
      "city": "Renfrew",
      "lat": 45.472,
      "long": -76.6839,
      "region": "Canada",
      "logo": "renfrew_county_roller_derby.jpg",
      "teams": [
        {
          "name": "All-Stars",
          "ranking": null,
          "ranking_date": null,
          "fts_code": 25639
        }
      ]
    },
    {
      "name": "Revelstoke Roller Derby",
      "country": "Canada",
      "city": "Revelstoke",
      "lat": 50.998,
      "long": -118.196,
      "region": "Canada",
      "logo": "revelstoke_roller_derby.jpg",
      "teams": [
        {
          "name": "Derailers",
          "ranking": null,
          "ranking_date": null,
          "fts_code": 12457
        }
      ]
    },
    {
      "name": "Rez City Rollers",
      "country": "Canada",
      "city": "Wetaskiwin",
      "lat": 52.9684,
      "long": -113.368,
      "region": "Canada",
      "logo": "rez_city_rollers.jpg",
      "teams": [
        {
          "name": "Smokin Axels",
          "ranking": null,
          "ranking_date": null,
          "fts_code": 9863
        }
      ]
    },
    {
      "name": "Ridge Meadows Roller Derby",
      "country": "Canada",
      "city": "Maple Ridge",
      "lat": 49.2197,
      "long": -122.6,
      "region": "Canada",
      "logo": "ridge_meadows_roller_derby.jpg",
      "teams": [
        {
          "name": "Haney Hooligans",
          "ranking": null,
          "ranking_date": null,
          "fts_code": 16255
        }
      ]
    },
    {
      "name": "Ringleader Roller Girls",
      "country": "Canada",
      "city": "Whitewood",
      "lat": 50.3313,
      "long": -102.267,
      "region": "Canada",
      "logo": "ringleader_roller_girls.jpg",
      "teams": [
        {
          "name": "All-Stars",
          "ranking": null,
          "ranking_date": null,
          "fts_code": 26838
        }
      ]
    },
    {
      "name": "Rink Minx Rollergirls",
      "country": "Canada",
      "city": "Campbell River",
      "lat": 50.023,
      "long": -125.244,
      "region": "Canada",
      "logo": "rink_minx_rollergirls.jpg",
      "teams": [
        {
          "name": "Rink Minx",
          "ranking": null,
          "ranking_date": null,
          "fts_code": 9837
        }
      ]
    },
    {
      "name": "Riptide Rollers Association",
      "country": "Canada",
      "city": "Bridgetown East",
      "lat": 44.8495,
      "long": -65.266,
      "region": "Canada",
      "logo": "riptide_rollers_association.jpg",
      "teams": [
        {
          "name": "All-Stars",
          "ranking": null,
          "ranking_date": null,
          "fts_code": 13765
        }
      ]
    },
    {
      "name": "Rocky View Roller Derby Association",
      "country": "Canada",
      "city": "Airdrie",
      "lat": 51.2859,
      "long": -114.011,
      "region": "Canada",
      "logo": "rocky_view_roller_derby_association.jpg",
      "teams": [
        {
          "name": "Rebelles",
          "ranking": null,
          "ranking_date": null,
          "fts_code": 29024
        }
      ]
    },
    {
      "name": "Roller Derby Misfits",
      "country": "Canada",
      "city": "Woodstock",
      "lat": 49.9653,
      "long": -55.8848,
      "region": "Canada",
      "logo": "roller_derby_misfits.jpg",
      "teams": [
        {
          "name": "The Misfits",
          "ranking": null,
          "ranking_date": null,
          "fts_code": 47338
        }
      ]
    },
    {
      "name": "Roller Derby Quebec",
      "country": "Canada",
      "city": "Québec",
      "lat": 46.8259,
      "long": -71.2353,
      "region": "Canada",
      "logo": "roller_derby_quebec.jpg",
      "teams": [
        {
          "name": "RDQ: Rouge et Gore",
          "ranking": null,
          "ranking_date": null,
          "fts_code": 13763
        },
        {
          "name": "RDQ: Casse-Gueules",
          "ranking": null,
          "ranking_date": null,
          "fts_code": 13762
        },
        {
          "name": "Les Duchesses",
          "ranking": null,
          "ranking_date": null,
          "fts_code": 9838
        }
      ]
    },
    {
      "name": "Roller Derby Rimouski",
      "country": "Canada",
      "city": "Rimouski",
      "lat": 48.4501,
      "long": -68.53,
      "region": "Canada",
      "logo": "roller_derby_rimouski.jpg",
      "teams": [
        {
          "name": "Les Scies-Reines",
          "ranking": null,
          "ranking_date": null,
          "fts_code": 51627
        }
      ]
    },
    {
      "name": "Roller Derby Sherbrooke",
      "country": "Canada",
      "city": "Sherbrooke",
      "lat": 45.4032,
      "long": -71.8891,
      "region": "Canada",
      "logo": "roller_derby_sherbrooke.jpg",
      "teams": [
        {
          "name": "Les Rebelles",
          "ranking": null,
          "ranking_date": null,
          "fts_code": 65446
        }
      ]
    },
    {
      "name": "Rossland Trail Roller Girls",
      "country": "Canada",
      "city": "Rossland",
      "lat": 49.0784,
      "long": -117.8,
      "region": "Canada",
      "logo": "rossland_trail_roller_girls.jpg",
      "teams": [
        {
          "name": "Rossland Trail Roller Girls",
          "ranking": null,
          "ranking_date": null,
          "fts_code": 27772
        }
      ]
    },
    {
      "name": "Royal City Roller Derby",
      "country": "Canada",
      "city": "Guelph",
      "lat": 43.5465,
      "long": -80.25,
      "region": "Canada",
      "logo": "royal_city_roller_derby.jpg",
      "teams": [
        {
          "name": "RCRD: Our Ladies of Pain",
          "ranking": null,
          "ranking_date": null,
          "fts_code": 9901
        },
        {
          "name": "RCRD: Violet Uprising",
          "ranking": null,
          "ranking_date": null,
          "fts_code": 9900
        },
        {
          "name": "RCRD: Killer Queens",
          "ranking": null,
          "ranking_date": null,
          "fts_code": 9899
        },
        {
          "name": "RCRD: Rum Rollers",
          "ranking": null,
          "ranking_date": null,
          "fts_code": 71505
        },
        {
          "name": "Brute-Leggers",
          "ranking": null,
          "ranking_date": null,
          "fts_code": 9839
        }
      ]
    },
    {
      "name": "S.S. Rodeo",
      "country": "Canada",
      "city": "Penticton",
      "lat": 49.5024,
      "long": -119.591,
      "region": "Canada",
      "logo": "s.s._rodeo.jpg",
      "teams": [
        {
          "name": "S.S. Rodeo",
          "ranking": null,
          "ranking_date": null,
          "fts_code": 9840
        }
      ]
    },
    {
      "name": "Salish Sea Rollers",
      "country": "Canada",
      "city": "Salisbury",
      "lat": 46.0288,
      "long": -65.0433,
      "region": "Canada",
      "logo": "salish_sea_rollers.jpg",
      "teams": [
        {
          "name": "All-Stars",
          "ranking": null,
          "ranking_date": null,
          "fts_code": 10384
        }
      ]
    },
    {
      "name": "Salt Spring Roller Derby",
      "country": "Canada",
      "city": "Salt Spring Island Electoral Area",
      "lat": 48.8156,
      "long": -123.493,
      "region": "Canada",
      "logo": "salt_spring_roller_derby.jpg",
      "teams": [
        {
          "name": "The Committed",
          "ranking": null,
          "ranking_date": null,
          "fts_code": 15680
        }
      ]
    },
    {
      "name": "Sarnia Roller Derby League",
      "country": "Canada",
      "city": "Sarnia",
      "lat": 42.9925,
      "long": -82.381,
      "region": "Canada",
      "logo": "sarnia_roller_derby_league.jpg",
      "teams": [
        {
          "name": "Chin Straps",
          "ranking": null,
          "ranking_date": null,
          "fts_code": 33420
        }
      ]
    },
    {
      "name": "Saskatoon Roller Derby League",
      "country": "Canada",
      "city": "Saskatoon",
      "lat": 52.1318,
      "long": -106.661,
      "region": "Canada",
      "logo": "saskatoon_roller_derby_league.jpg",
      "teams": [
        {
          "name": "SRDL: Killa Bees",
          "ranking": null,
          "ranking_date": null,
          "fts_code": 9941
        },
        {
          "name": "The Mindfox",
          "ranking": null,
          "ranking_date": null,
          "fts_code": 9842
        }
      ]
    },
    {
      "name": "Seaway Roller Derby Girls",
      "country": "Canada",
      "city": "Cornwall",
      "lat": 46.2296,
      "long": -63.2182,
      "region": "Canada",
      "logo": "seaway_roller_derby_girls.jpg",
      "teams": [
        {
          "name": "All-Stars",
          "ranking": null,
          "ranking_date": null,
          "fts_code": 20366
        }
      ]
    },
    {
      "name": "South East Sask Roller Derby Association",
      "country": "Canada",
      "city": "Estevan",
      "lat": 49.1428,
      "long": -102.991,
      "region": "Canada",
      "logo": "south_east_sask_roller_derby_association.jpg",
      "teams": [
        {
          "name": "Hillbilly Hurt",
          "ranking": null,
          "ranking_date": null,
          "fts_code": 9844
        }
      ]
    },
    {
      "name": "South Okanagan Roller Derby",
      "country": "Canada",
      "city": "Penticton",
      "lat": 49.5024,
      "long": -119.591,
      "region": "Canada",
      "logo": "south_okanagan_roller_derby.jpg",
      "teams": [
        {
          "name": "Penticton Pistoleras",
          "ranking": null,
          "ranking_date": null,
          "fts_code": 12458
        }
      ]
    },
    {
      "name": "South Simcoe Rebel Rollers",
      "country": "Canada",
      "city": "Barrie",
      "lat": 44.3893,
      "long": -79.6902,
      "region": "Canada",
      "logo": "south_simcoe_rebel_rollers.jpg",
      "teams": [
        {
          "name": "SSRR: Ghoul Guides",
          "ranking": null,
          "ranking_date": null,
          "fts_code": 14598
        },
        {
          "name": "SSRR: Boneyard Betties",
          "ranking": null,
          "ranking_date": null,
          "fts_code": 14599
        },
        {
          "name": "South Simcoe Rebel Rollers",
          "ranking": null,
          "ranking_date": null,
          "fts_code": 9845
        }
      ]
    },
    {
      "name": "South West Sask Roller Derby Association",
      "country": "Canada",
      "city": "Swift Current",
      "lat": 50.2858,
      "long": -107.801,
      "region": "Canada",
      "logo": "south_west_sask_roller_derby_association.jpg",
      "teams": [
        {
          "name": "Redneck Betties",
          "ranking": null,
          "ranking_date": null,
          "fts_code": 9846
        }
      ]
    },
    {
      "name": "Squamish Women's Roller Derby",
      "country": "Canada",
      "city": "Squamish",
      "lat": 49.698,
      "long": -123.156,
      "region": "Canada",
      "logo": "squamish_women's_roller_derby.jpg",
      "teams": [
        {
          "name": "Sea to Sky Sirens",
          "ranking": null,
          "ranking_date": null,
          "fts_code": 9847
        }
      ]
    },
    {
      "name": "St. Albert Heavenly Rollers Derby",
      "country": "Canada",
      "city": "St. Albert",
      "lat": 53.6332,
      "long": -113.629,
      "region": "Canada",
      "logo": "st._albert_heavenly_rollers_derby.jpg",
      "teams": [
        {
          "name": "STAHR: Beelzebubs",
          "ranking": null,
          "ranking_date": null,
          "fts_code": 16545
        },
        {
          "name": "Arch Angels",
          "ranking": null,
          "ranking_date": null,
          "fts_code": 9848
        }
      ]
    },
    {
      "name": "Sunshine Coast Roller Girls",
      "country": "Canada",
      "city": "Gibsons",
      "lat": 49.4006,
      "long": -123.509,
      "region": "Canada",
      "logo": "sunshine_coast_roller_girls.jpg",
      "teams": [
        {
          "name": "Red Tide Warning",
          "ranking": null,
          "ranking_date": null,
          "fts_code": 9849
        }
      ]
    },
    {
      "name": "Terminal City Rollergirls",
      "country": "Canada",
      "city": "Vancouver",
      "lat": 49.2608,
      "long": -123.114,
      "region": "Canada",
      "logo": "terminal_city_rollergirls.jpg",
      "teams": [
        {
          "name": "TCRG: Terminal City B-Side",
          "ranking": null,
          "ranking_date": null,
          "fts_code": 63648
        },
        {
          "name": "All-Stars",
          "ranking": null,
          "ranking_date": null,
          "fts_code": 4290
        }
      ]
    },
    {
      "name": "The Walking Dead Derby Girlz",
      "country": "Canada",
      "city": "Kitchener",
      "lat": 43.4531,
      "long": -80.4945,
      "region": "Canada",
      "logo": "the_walking_dead_derby_girlz.jpg",
      "teams": [
        {
          "name": "The Rigor Mortis Roxys",
          "ranking": null,
          "ranking_date": null,
          "fts_code": 25714
        }
      ]
    },
    {
      "name": "Thunder Bay Roller Derby",
      "country": "Canada",
      "city": "Thunder Bay",
      "lat": 48.4064,
      "long": -89.2598,
      "region": "Canada",
      "logo": "thunder_bay_roller_derby.jpg",
      "teams": [
        {
          "name": "Babes of Thunder",
          "ranking": null,
          "ranking_date": null,
          "fts_code": 9851
        }
      ]
    },
    {
      "name": "Toronto Roller Derby",
      "country": "Canada",
      "city": "Toronto",
      "lat": 43.6539,
      "long": -79.3873,
      "region": "Canada",
      "logo": "toronto_roller_derby.jpg",
      "teams": [
        {
          "name": "ToRD: Smoke City Bandits",
          "ranking": null,
          "ranking_date": null,
          "fts_code": 9918
        },
        {
          "name": "ToRD: Gore Gore Rollergirls",
          "ranking": null,
          "ranking_date": null,
          "fts_code": 7811
        },
        {
          "name": "ToRD: Death Track Dolls",
          "ranking": null,
          "ranking_date": null,
          "fts_code": 8656
        },
        {
          "name": "ToRD: Chicks Ahoy!",
          "ranking": null,
          "ranking_date": null,
          "fts_code": 7810
        },
        {
          "name": "ToRD: Vipers",
          "ranking": null,
          "ranking_date": null,
          "fts_code": 9920
        },
        {
          "name": "ToRD: A-Stars B Team",
          "ranking": null,
          "ranking_date": null,
          "fts_code": 13204
        },
        {
          "name": "All-Stars",
          "ranking": null,
          "ranking_date": null,
          "fts_code": 4739
        }
      ]
    },
    {
      "name": "Tournament City Derby Dolls",
      "country": "Canada",
      "city": "Kamloops",
      "lat": 50.6758,
      "long": -120.339,
      "region": "Canada",
      "logo": "tournament_city_derby_dolls.jpg",
      "teams": [
        {
          "name": "Wreckers",
          "ranking": null,
          "ranking_date": null,
          "fts_code": 9852
        }
      ]
    },
    {
      "name": "Tri-City Roller Derby",
      "country": "Canada",
      "city": "Kitchener",
      "lat": 43.4531,
      "long": -80.4945,
      "region": "Canada",
      "logo": "tri-city_roller_derby.jpg",
      "teams": [
        {
          "name": "TCRD: Total Knock-Outs",
          "ranking": null,
          "ranking_date": null,
          "fts_code": 84124
        },
        {
          "name": "TCRD: Venus Fly Tramps",
          "ranking": null,
          "ranking_date": null,
          "fts_code": 9922
        },
        {
          "name": "TCRD: Vicious Dishes",
          "ranking": null,
          "ranking_date": null,
          "fts_code": 9921
        },
        {
          "name": "TCRD: Tri-City Thunder Bees",
          "ranking": null,
          "ranking_date": null,
          "fts_code": 15098
        },
        {
          "name": "Thunder",
          "ranking": null,
          "ranking_date": null,
          "fts_code": 3650
        }
      ]
    },
    {
      "name": "Wellington Roller Derby",
      "country": "Canada",
      "city": "Mount Forest",
      "lat": 43.9816,
      "long": -80.7364,
      "region": "Canada",
      "logo": "wellington_roller_derby.jpg",
      "teams": [
        {
          "name": "Bloody Marys",
          "ranking": null,
          "ranking_date": null,
          "fts_code": 27573
        }
      ]
    },
    {
      "name": "West End Wayward Rollerskating Association",
      "country": "Canada",
      "city": "Toronto",
      "lat": 43.6539,
      "long": -79.3873,
      "region": "Canada",
      "logo": "west_end_wayward_rollerskating_association.jpg",
      "teams": [
        {
          "name": "Rollergettes",
          "ranking": null,
          "ranking_date": null,
          "fts_code": 9854
        }
      ]
    },
    {
      "name": "West Yellowhead Roller Derby",
      "country": "Canada",
      "city": "Hinton",
      "lat": 53.4046,
      "long": -117.57,
      "region": "Canada",
      "logo": "west_yellowhead_roller_derby.jpg",
      "teams": [
        {
          "name": "All-Stars",
          "ranking": null,
          "ranking_date": null,
          "fts_code": 25080
        }
      ]
    },
    {
      "name": "Weyburn Roller Derby Association",
      "country": "Canada",
      "city": "Weyburn",
      "lat": 49.6694,
      "long": -103.851,
      "region": "Canada",
      "logo": "weyburn_roller_derby_association.jpg",
      "teams": [
        {
          "name": "Strait Jackettes",
          "ranking": null,
          "ranking_date": null,
          "fts_code": 55446
        }
      ]
    },
    {
      "name": "Wheat City Roller Derby",
      "country": "Canada",
      "city": "Brandon",
      "lat": 49.8511,
      "long": -99.9609,
      "region": "Canada",
      "logo": "wheat_city_roller_derby.jpg",
      "teams": [
        {
          "name": "WCRDL: Scarlet Fever",
          "ranking": null,
          "ranking_date": null,
          "fts_code": 83014
        },
        {
          "name": "Gang Green",
          "ranking": null,
          "ranking_date": null,
          "fts_code": 18995
        }
      ]
    },
    {
      "name": "Whistler Roller Girls",
      "country": "Canada",
      "city": "Whistler",
      "lat": 50.1171,
      "long": -122.954,
      "region": "Canada",
      "logo": "whistler_roller_girls.jpg",
      "teams": [
        {
          "name": "Black Diamond Betties",
          "ranking": null,
          "ranking_date": null,
          "fts_code": 13771
        }
      ]
    },
    {
      "name": "Whitecourt Roller Derby League",
      "country": "Canada",
      "city": "Whitecourt",
      "lat": 54.1501,
      "long": -115.685,
      "region": "Canada",
      "logo": "whitecourt_roller_derby_league.jpg",
      "teams": [
        {
          "name": "HOT ROLLERS",
          "ranking": null,
          "ranking_date": null,
          "fts_code": 89556
        }
      ]
    },
    {
      "name": "Windsor Roller Derby",
      "country": "Canada",
      "city": "Windsor",
      "lat": 42.3042,
      "long": -83.0299,
      "region": "Canada",
      "logo": "windsor_roller_derby.jpg",
      "teams": [
        {
          "name": "Brawlers",
          "ranking": null,
          "ranking_date": null,
          "fts_code": 10009
        }
      ]
    },
    {
      "name": "Winnipeg Roller Derby League",
      "country": "Canada",
      "city": "Winnipeg",
      "lat": 49.884,
      "long": -97.1686,
      "region": "Canada",
      "logo": "winnipeg_roller_derby_league.jpg",
      "teams": [
        {
          "name": "WRDL: Bombshell Brawlers",
          "ranking": null,
          "ranking_date": null,
          "fts_code": 30573
        },
        {
          "name": "All-Stars",
          "ranking": null,
          "ranking_date": null,
          "fts_code": 9856
        }
      ]
    },
    {
      "name": "Yukon Roller Girls",
      "country": "Canada",
      "city": "Whitehorse",
      "lat": 60.7215,
      "long": -135.055,
      "region": "Canada",
      "logo": "yukon_roller_girls.jpg",
      "teams": [
        {
          "name": "Yukon Roller Girls",
          "ranking": null,
          "ranking_date": null,
          "fts_code": 11466
        }
      ]
    }
  ]
}
