{"leagues":[{"name":"2x4 Roller Derby","country":"Argentina","city":"Buenos Aires","lat":-34.6076,"long":-58.4371,"region":"Latin America","logo":"2x4_roller_derby.jpg","teams":[{"name":"2X4: Lxs Pibxs","ranking":308,"ranking_date":"2019-05-14","fts_code":25448},{"name":"Jamwaiantropic","ranking":null,"ranking_date":null,"fts_code":88257},{"name":"2X4: Bloody Furias Roller Derby","ranking":248,"ranking_date":"2019-05-14","fts_code":42828},{"name":"2X4: Cowgirls From Hell","ranking":233,"ranking_date":"2019-05-14","fts_code":25018},{"name":"2X4: Bully Chicks","ranking":244,"ranking_date":"2019-05-14","fts_code":25017},{"name":"2X4: Wild Girls","ranking":null,"ranking_date":null,"fts_code":25019},{"name":"2X4: Team C","ranking":706,"ranking_date":"2019-05-14","fts_code":89128},{"name":"Team OSOM","ranking":12,"ranking_date":"2019-05-14","fts_code":25016}]},{"name":"Maquina Del Mal Feminino","country":"Colombia","city":"Bogotá","lat":4.59808,"long":-74.0761,"region":"Latin America","logo":"maquina_del_mal_feminino.jpg","teams":[{"name":"All-stars","ranking":1887,"ranking_date":"2019-05-14","fts_code":90591}]},{"name":"Wing City Angels","country":"Brazil","city":"Brasília","lat":-15.7934,"long":-47.8823,"region":"Latin America","logo":"wing_city_angels.jpg","teams":[{"name":"All-stars","ranking":null,"ranking_date":null,"fts_code":55801}]},{"name":"Akelarre Roller Derby","country":"Mexico","city":"Mexico City","lat":19.4326,"long":-99.1333,"region":"Latin America","logo":"akelarre_roller_derby.jpg","teams":[{"name":"All-stars","ranking":null,"ranking_date":null,"fts_code":96136}]},{"name":"Alianza Rebelde Roller Derby","country":"Argentina","city":"Berazategui","lat":-34.7487,"long":-58.1984,"region":"Latin America","logo":"alianza_rebelde_roller_derby.jpg","teams":[{"name":"Alianza Rebelde","ranking":285,"ranking_date":"2019-05-14","fts_code":44776}]},{"name":"All-Blacks Roller Derby","country":"Mexico","city":"Mexico City","lat":19.4285,"long":-99.1277,"region":"Latin America","logo":"all-blacks_roller_derby.jpg","teams":[{"name":"Block Division","ranking":1496,"ranking_date":"2019-05-14","fts_code":60216},{"name":"ABRD: Malinches","ranking":null,"ranking_date":null,"fts_code":93643}]},{"name":"Amazonas Roller Derby","country":"Mexico","city":"Guadalajara","lat":20.6761,"long":-103.347,"region":"Latin America","logo":"amazonas_roller_derby.jpg","teams":[{"name":"All-stars","ranking":null,"ranking_date":null,"fts_code":56161}]},{"name":"Ambulatory Derbyteam","country":"Argentina","city":"Neuquén","lat":-38.9549,"long":-68.0593,"region":"Latin America","logo":"ambulatory_derbyteam.jpg","teams":[{"name":"All-stars","ranking":1517,"ranking_date":"2019-05-14","fts_code":95173}]},{"name":"Atlantis Roller Crew","country":"Argentina","city":"Mendoza","lat":-32.8897,"long":-68.8443,"region":"Latin America","logo":"atlantis_roller_crew.jpg","teams":[{"name":"All-stars","ranking":1515,"ranking_date":"2019-05-14","fts_code":105619}]},{"name":"Atomic Bombs Roller Derby","country":"Argentina","city":"Lanús Este","lat":-34.7109,"long":-58.3742,"region":"Latin America","logo":"atomic_bombs_roller_derby.jpg","teams":[{"name":"All-stars","ranking":573,"ranking_date":"2019-05-14","fts_code":86991}]},{"name":"Atómicas Roller Derby","country":"Mexico","city":"Toluca-México [SPR]","lat":18.0764,"long":-91.6489,"region":"Latin America","logo":"atómicas_roller_derby.jpg","teams":[{"name":"All-stars","ranking":1915,"ranking_date":"2019-05-14","fts_code":91803}]},{"name":"Aukan Roller Derby","country":"Chile","city":"Viña del Mar","lat":-33.0245,"long":-71.5518,"region":"Latin America","logo":"aukan_roller_derby.jpg","teams":[{"name":"All-stars","ranking":1535,"ranking_date":"2019-05-14","fts_code":95265}]},{"name":"Baja Roller Derby","country":"Mexico","city":"Tijuana","lat":32.501,"long":-116.965,"region":"Latin America","logo":"baja_roller_derby.jpg","teams":[{"name":"All-stars","ranking":270,"ranking_date":"2019-05-14","fts_code":88241}]},{"name":"Barderas Insurrectas Roller Derby","country":"Argentina","city":"Neuquén","lat":-38.9549,"long":-68.0593,"region":"Latin America","logo":"barderas_insurrectas_roller_derby.jpg","teams":[{"name":"All-stars","ranking":626,"ranking_date":"2019-05-14","fts_code":87442}]},{"name":"Bastardas Roller Derby Tigre","country":"Argentina","city":"Buenos Aires","lat":-34.6076,"long":-58.4371,"region":"Latin America","logo":"bastardas_roller_derby_tigre.jpg","teams":[{"name":"All-stars","ranking":1536,"ranking_date":"2019-05-14","fts_code":95615}]},{"name":"Black Hearts Derby Girls","country":"Brazil","city":"Vila Velha","lat":-20.3297,"long":-40.292,"region":"Latin America","logo":"black_hearts_derby_girls.jpg","teams":[{"name":"All-stars","ranking":null,"ranking_date":null,"fts_code":55803}]},{"name":"Black Sheep Derby Grrrls","country":"Argentina","city":"Trelew","lat":-43.2531,"long":-65.3094,"region":"Latin America","logo":"black_sheep_derby_grrrls.jpg","teams":[{"name":"All-stars","ranking":null,"ranking_date":null,"fts_code":55431}]},{"name":"Black Swan Roller Derby","country":"Argentina","city":"Acassuso","lat":-34.4764,"long":-58.5044,"region":"Latin America","logo":"black_swan_roller_derby.jpg","teams":[{"name":"All-stars","ranking":null,"ranking_date":null,"fts_code":55405}]},{"name":"Blazing Phoenix Derby Dames","country":"Brazil","city":"Santos","lat":-23.9608,"long":-46.3339,"region":"Latin America","logo":"blazing_phoenix_derby_dames.jpg","teams":[{"name":"All-stars","ranking":null,"ranking_date":null,"fts_code":55820}]},{"name":"Bloody Runners","country":"Colombia","city":"Santiago de Cali","lat":3.43193,"long":-76.5113,"region":"Latin America","logo":"bloody_runners.jpg","teams":[{"name":"All-stars","ranking":null,"ranking_date":null,"fts_code":56144}]},{"name":"Blue Jay Rollers","country":"Brazil","city":"Curitiba","lat":-25.4296,"long":-49.2713,"region":"Latin America","logo":"blue_jay_rollers.jpg","teams":[{"name":"All-stars","ranking":1195,"ranking_date":"2019-05-14","fts_code":55808}]},{"name":"Bogotá Bone Breakers","country":"Colombia","city":"Bogotá","lat":4.59808,"long":-74.0761,"region":"Latin America","logo":"bogotá_bone_breakers.jpg","teams":[{"name":"Bx3: Baby Breakers","ranking":1334,"ranking_date":"2019-05-14","fts_code":87622},{"name":"All-stars","ranking":110,"ranking_date":"2019-05-14","fts_code":24782}]},{"name":"Brujas Gatos","country":"Mexico","city":"Mexico City","lat":19.3642,"long":-99.1629,"region":"Latin America","logo":"brujas_gatos.jpg","teams":[{"name":"All-stars","ranking":null,"ranking_date":null,"fts_code":25173}]},{"name":"Brujas Roller Derby","country":"Argentina","city":"Bahía Blanca","lat":-38.7182,"long":-62.2662,"region":"Latin America","logo":"brujas_roller_derby.jpg","teams":[{"name":"All-stars","ranking":1208,"ranking_date":"2019-05-14","fts_code":95175}]},{"name":"Brutal FEM La Rioja Roller Derby","country":"Argentina","city":"La Rioja","lat":-29.4127,"long":-66.8559,"region":"Latin America","logo":"brutal_fem_la_rioja_roller_derby.jpg","teams":[{"name":"All-stars","ranking":1826,"ranking_date":"2019-05-14","fts_code":89468}]},{"name":"Brutal Lips Roller Derby","country":"Italy","city":"Prato","lat":43.8982,"long":11.0956,"region":"Latin America","logo":"brutal_lips_roller_derby.jpg","teams":[{"name":"All-stars","ranking":1262,"ranking_date":"2019-05-14","fts_code":88595}]},{"name":"Buenos Aires Roller Derby","country":"Argentina","city":"Buenos Aires","lat":-34.6076,"long":-58.4371,"region":"Latin America","logo":"buenos_aires_roller_derby.jpg","teams":[{"name":"BARD: Mambas Negras Roller Derby","ranking":320,"ranking_date":"2019-05-14","fts_code":48910},{"name":"BARD A","ranking":454,"ranking_date":"2019-05-14","fts_code":25183},{"name":"BARD: Arpías Roller Derby","ranking":771,"ranking_date":"2019-05-14","fts_code":87444},{"name":"BARD: Cougar Rollers","ranking":378,"ranking_date":"2019-05-14","fts_code":25185},{"name":"BARD: BARD B: Bestias","ranking":1105,"ranking_date":"2019-05-14","fts_code":64537},{"name":"BARD: BARD C: Cerdas","ranking":1264,"ranking_date":"2019-05-14","fts_code":88280}]},{"name":"Calacas Acidas Roller Derby","country":"Argentina","city":"Necochea","lat":-38.5545,"long":-58.7393,"region":"Latin America","logo":"calacas_acidas_roller_derby.jpg","teams":[{"name":"All-stars","ranking":null,"ranking_date":null,"fts_code":88315}]},{"name":"Canibales Roller Derby","country":"Colombia","city":"Manizales","lat":5.0646,"long":-75.4992,"region":"Latin America","logo":"canibales_roller_derby.jpg","teams":[{"name":"All-stars","ranking":null,"ranking_date":null,"fts_code":56130}]},{"name":"Caóticas Roller Derby","country":"Mexico","city":"Fraccionamiento Los Hereoes Queretaro","lat":20.5909,"long":-100.247,"region":"Latin America","logo":"caóticas_roller_derby.jpg","teams":[{"name":"All-stars","ranking":1929,"ranking_date":"2019-05-14","fts_code":104991}]},{"name":"Capivaras Roller Derby","country":"Brazil","city":"Piracicaba","lat":-22.7253,"long":-47.6492,"region":"Latin America","logo":"capivaras_roller_derby.jpg","teams":[{"name":"All-stars","ranking":1886,"ranking_date":"2019-05-14","fts_code":105962}]},{"name":"Carnivoras Roller Derby","country":"Mexico","city":"Mexico City","lat":19.3642,"long":-99.1629,"region":"Latin America","logo":"carnivoras_roller_derby.jpg","teams":[{"name":"All-stars","ranking":null,"ranking_date":null,"fts_code":27786}]},{"name":"Catastroficats Roller Derby Morelia","country":"Mexico","city":"San Juan Yurécuaro","lat":19.9095,"long":-100.449,"region":"Latin America","logo":"catastroficats_roller_derby_morelia.jpg","teams":[{"name":"Catastroficats","ranking":null,"ranking_date":null,"fts_code":93284}]},{"name":"Catrinas Roller Derby","country":"Mexico","city":"Mexico City","lat":19.4326,"long":-99.1333,"region":"Latin America","logo":"catrinas_roller_derby.jpg","teams":[{"name":"All-stars","ranking":511,"ranking_date":"2019-05-14","fts_code":109039}]},{"name":"Central Derby D.C.","country":"Colombia","city":"Bogotá","lat":4.59808,"long":-74.0761,"region":"Latin America","logo":"central_derby_d.c..jpg","teams":[{"name":"All-stars","ranking":848,"ranking_date":"2019-05-14","fts_code":87592}]},{"name":"Chillanrolleras Derby Club","country":"Chile","city":"Chillán","lat":-36.6091,"long":-72.1408,"region":"Latin America","logo":"chillanrolleras_derby_club.jpg","teams":[{"name":"All-stars","ranking":548,"ranking_date":"2019-05-14","fts_code":56114}]},{"name":"Chilli Queens Roller Derby League","country":"Brazil","city":"Três de Maio","lat":-27.7799,"long":-54.2357,"region":"Latin America","logo":"chilli_queens_roller_derby_league.jpg","teams":[{"name":"All-stars","ranking":null,"ranking_date":null,"fts_code":55816}]},{"name":"Colmena Roller Derby","country":"Argentina","city":"Buenos Aires","lat":-34.6076,"long":-58.4371,"region":"Latin America","logo":"colmena_roller_derby.jpg","teams":[{"name":"All-stars","ranking":1027,"ranking_date":"2019-05-14","fts_code":106112}]},{"name":"Comodoro Roller Derby","country":"Argentina","city":"Comodoro Rivadavia","lat":-45.8653,"long":-67.4808,"region":"Latin America","logo":"comodoro_roller_derby.jpg","teams":[{"name":"All-stars","ranking":1783,"ranking_date":"2019-05-14","fts_code":55429}]},{"name":"Complot Derby Club (Mujeres)","country":"Chile","city":"Santiago","lat":-33.4378,"long":-70.6504,"region":"Latin America","logo":"complot_derby_club_(mujeres).jpg","teams":[{"name":"Tijeras","ranking":1414,"ranking_date":"2019-05-14","fts_code":55276}]},{"name":"Cranium Basher Dolls","country":"Brazil","city":"Vitória","lat":-20.2886,"long":-40.3408,"region":"Latin America","logo":"cranium_basher_dolls.jpg","teams":[{"name":"All-stars","ranking":null,"ranking_date":null,"fts_code":55802}]},{"name":"Cruellas Roller Derby","country":"Argentina","city":"Neuquén","lat":-38.9549,"long":-68.0593,"region":"Latin America","logo":"cruellas_roller_derby.jpg","teams":[{"name":"All-stars","ranking":1007,"ranking_date":"2019-05-14","fts_code":96035}]},{"name":"Cruz del Sur","country":"France","city":"Paris","lat":48.8922,"long":2.3444,"region":"Latin America","logo":"cruz_del_sur.jpg","teams":[{"name":"All-stars","ranking":1634,"ranking_date":"2019-05-14","fts_code":109477}]},{"name":"Dark Side Roller Derby","country":"Costa Rica","city":"San José","lat":9.93254,"long":-84.0796,"region":"Latin America","logo":"dark_side_roller_derby.jpg","teams":[{"name":"All Stars","ranking":null,"ranking_date":null,"fts_code":76874}]},{"name":"Deportivo Morón Roller Derby","country":"Argentina","city":"Morón","lat":-34.6511,"long":-58.6217,"region":"Latin America","logo":"deportivo_morón_roller_derby.jpg","teams":[{"name":"All-stars","ranking":1524,"ranking_date":"2019-05-14","fts_code":55425}]},{"name":"Depredadoras Roller Derby","country":"Mexico","city":"Veracruz","lat":19.14,"long":-96.1486,"region":"Latin America","logo":"depredadoras_roller_derby.jpg","teams":[{"name":"All-stars","ranking":null,"ranking_date":null,"fts_code":93288}]},{"name":"Derby Witches","country":"Mexico","city":"Pachuca","lat":20.1165,"long":-98.7414,"region":"Latin America","logo":"derby_witches.jpg","teams":[{"name":"All-stars","ranking":1864,"ranking_date":"2019-05-14","fts_code":95959}]},{"name":"Desalmadas Roller Derby","country":"Argentina","city":"Avellaneda","lat":-34.6648,"long":-58.3628,"region":"Latin America","logo":"desalmadas_roller_derby.jpg","teams":[{"name":"All-stars","ranking":1133,"ranking_date":"2019-05-14","fts_code":87437}]},{"name":"Deskarriadas Roller Derby","country":"Chile","city":"Osorno","lat":-40.5733,"long":-73.1359,"region":"Latin America","logo":"deskarriadas_roller_derby.jpg","teams":[{"name":"All-stars","ranking":1814,"ranking_date":"2019-05-14","fts_code":56119}]},{"name":"Devilish Molotovers Derby League","country":"Brazil","city":"Santa Maria","lat":-29.6861,"long":-53.8069,"region":"Latin America","logo":"devilish_molotovers_derby_league.jpg","teams":[{"name":"All-stars","ranking":null,"ranking_date":null,"fts_code":55815}]},{"name":"División del Norte Roller Derby","country":"Mexico","city":"Chihuahua City","lat":28.6606,"long":-106.075,"region":"Latin America","logo":"división_del_norte_roller_derby.jpg","teams":[{"name":"All-stars","ranking":1796,"ranking_date":"2019-05-14","fts_code":88299}]},{"name":"Dulces Caníbales Roller Derby Mendoza","country":"Argentina","city":"Mendoza","lat":-32.8897,"long":-68.8443,"region":"Latin America","logo":"dulces_caníbales_roller_derby_mendoza.jpg","teams":[{"name":"All-stars","ranking":1069,"ranking_date":"2019-05-14","fts_code":55435}]},{"name":"EMEXRD","country":"Mexico","city":"Mexico City","lat":19.4326,"long":-99.1333,"region":"Latin America","logo":"emexrd.jpg","teams":[{"name":"Discordias","ranking":658,"ranking_date":"2019-05-14","fts_code":93335},{"name":"EMEXRD: Roller Devils","ranking":1918,"ranking_date":"2019-05-14","fts_code":96540},{"name":"EMEXRD: Humuhumunukunukuapua Roller Derby","ranking":1717,"ranking_date":"2019-05-14","fts_code":98206}]},{"name":"Enchanted Island Roller Derby","country":"Philippines","city":"San Juan 1","lat":14.3819,"long":120.878,"region":"Latin America","logo":"enchanted_island_roller_derby.jpg","teams":[{"name":"All-stars","ranking":null,"ranking_date":null,"fts_code":25212}]},{"name":"Erráticas Roller Derby","country":"Argentina","city":"El Calafate","lat":-50.3389,"long":-72.2653,"region":"Latin America","logo":"erráticas_roller_derby.jpg","teams":[{"name":"All-stars","ranking":1597,"ranking_date":"2019-05-14","fts_code":98824}]},{"name":"Espartanas Roller Derby","country":"Colombia","city":"Bogotá","lat":4.59808,"long":-74.0761,"region":"Latin America","logo":"espartanas_roller_derby.jpg","teams":[{"name":"All-stars","ranking":null,"ranking_date":null,"fts_code":56135}]},{"name":"Esteparias Roller Derby","country":"Argentina","city":"Río Gallegos","lat":-51.6233,"long":-69.216,"region":"Latin America","logo":"esteparias_roller_derby.jpg","teams":[{"name":"All-stars","ranking":1664,"ranking_date":"2019-05-14","fts_code":98827}]},{"name":"Fawkes Roller Derby","country":"Argentina","city":"Buenos Aires","lat":-34.6076,"long":-58.4371,"region":"Latin America","logo":"fawkes_roller_derby.jpg","teams":[{"name":"Fawkes West Zone","ranking":1404,"ranking_date":"2019-05-14","fts_code":87915}]},{"name":"Fenix Roller Derby","country":"Argentina","city":"Río Gallegos","lat":-51.6233,"long":-69.216,"region":"Latin America","logo":"fenix_roller_derby.jpg","teams":[{"name":"All-stars","ranking":1725,"ranking_date":"2019-05-14","fts_code":98825}]},{"name":"Fugaz Roller Derby","country":"Mexico","city":"Toluca-México [SPR]","lat":18.0764,"long":-91.6489,"region":"Latin America","logo":"fugaz_roller_derby.jpg","teams":[{"name":"Fugaz Roller Derby","ranking":1476,"ranking_date":"2019-05-14","fts_code":102064}]},{"name":"Fugitivas Roller Derby","country":"Colombia","city":"Bogotá","lat":4.59808,"long":-74.0761,"region":"Latin America","logo":"fugitivas_roller_derby.jpg","teams":[{"name":"All-stars","ranking":1110,"ranking_date":"2019-05-14","fts_code":56136}]},{"name":"Fugitivas Roller Derby","country":"Mexico","city":"Mérida","lat":20.9671,"long":-89.6237,"region":"Latin America","logo":"fugitivas_roller_derby.jpg","teams":[{"name":"All-stars","ranking":1232,"ranking_date":"2019-05-14","fts_code":56171}]},{"name":"Furias Roller Derby","country":"Chile","city":"Santiago","lat":-33.4378,"long":-70.6504,"region":"Latin America","logo":"furias_roller_derby.jpg","teams":[{"name":"All-stars","ranking":1078,"ranking_date":"2019-05-14","fts_code":95267}]},{"name":"Furiosas Roller Derby","country":"Mexico","city":"Fraccionamiento Los Hereoes Queretaro","lat":20.5909,"long":-100.247,"region":"Latin America","logo":"furiosas_roller_derby.jpg","teams":[{"name":"All-stars","ranking":1318,"ranking_date":"2019-05-14","fts_code":88247}]},{"name":"Gray City Rebels","country":"Brazil","city":"São Paulo","lat":-23.5507,"long":-46.6334,"region":"Latin America","logo":"gray_city_rebels.jpg","teams":[{"name":"The Humming","ranking":619,"ranking_date":"2019-05-14","fts_code":25580}]},{"name":"Hiedras Roller Derby","country":"Argentina","city":"Córdoba","lat":-31.4173,"long":-64.1833,"region":"Latin America","logo":"hiedras_roller_derby.jpg","teams":[{"name":"Hiedras Venenosas","ranking":251,"ranking_date":"2019-05-14","fts_code":55432}]},{"name":"Hienas Roller Derby","country":"Colombia","city":"Pamplona","lat":7.37574,"long":-72.6488,"region":"Latin America","logo":"hienas_roller_derby.jpg","teams":[{"name":"All-stars","ranking":null,"ranking_date":null,"fts_code":56139}]},{"name":"Hijas de Pantano","country":"Argentina","city":"Neuquén","lat":-38.9549,"long":-68.0593,"region":"Latin America","logo":"hijas_de_pantano.jpg","teams":[{"name":"All-stars","ranking":1447,"ranking_date":"2019-05-14","fts_code":96037}]},{"name":"Horrorcats Roller Derby League","country":"Brazil","city":"Caxias do Sul","lat":-29.1685,"long":-51.1794,"region":"Latin America","logo":"horrorcats_roller_derby_league.jpg","teams":[{"name":"All-stars","ranking":null,"ranking_date":null,"fts_code":55812}]},{"name":"Huiñas Roller Derby","country":"Argentina","city":"San Carlos de Bariloche","lat":-41.1335,"long":-71.31,"region":"Latin America","logo":"huiñas_roller_derby.jpg","teams":[{"name":"All-stars","ranking":1675,"ranking_date":"2019-05-14","fts_code":104343}]},{"name":"Indómitas Roller Derby","country":"Argentina","city":"Avellaneda","lat":-34.6648,"long":-58.3628,"region":"Latin America","logo":"indómitas_roller_derby.jpg","teams":[{"name":"All-stars","ranking":null,"ranking_date":null,"fts_code":55414}]},{"name":"Inferno City Roller Derby","country":"Mexico","city":"Mexicali","lat":32.6201,"long":-115.444,"region":"Latin America","logo":"inferno_city_roller_derby.jpg","teams":[{"name":"All-stars","ranking":null,"ranking_date":null,"fts_code":56151}]},{"name":"Inka Queens Roller Derby","country":"Peru","city":"Lima","lat":-12.0621,"long":-77.0365,"region":"Latin America","logo":"inka_queens_roller_derby.jpg","teams":[{"name":"All-stars","ranking":null,"ranking_date":null,"fts_code":56172}]},{"name":"INKA RD","country":"Argentina","city":"Buenos Aires","lat":-34.6076,"long":-58.4371,"region":"Latin America","logo":"inka_rd.jpg","teams":[{"name":"All-stars","ranking":539,"ranking_date":"2019-05-14","fts_code":108738}]},{"name":"Insubordinadas Roller Derby Disidente","country":"Italy","city":"Prato","lat":43.8982,"long":11.0956,"region":"Latin America","logo":"insubordinadas_roller_derby_disidente.jpg","teams":[{"name":"Insubordinadas","ranking":529,"ranking_date":"2019-05-14","fts_code":102517}]},{"name":"Insubordinadas Roller Derby Quito","country":"Ecuador","city":"Quito","lat":-0.220164,"long":-78.5123,"region":"Latin America","logo":"insubordinadas_roller_derby_quito.jpg","teams":[{"name":"All-stars","ranking":null,"ranking_date":null,"fts_code":56149}]},{"name":"Iron Ladies Roller Derby","country":"Brazil","city":"Blumenau","lat":-26.9196,"long":-49.0658,"region":"Latin America","logo":"iron_ladies_roller_derby.jpg","teams":[{"name":"All-stars","ranking":1661,"ranking_date":"2019-05-14","fts_code":55818}]},{"name":"Juarez Roller Derby  (Womens)","country":"Mexico","city":"Ciudad Juárez","lat":31.7386,"long":-106.486,"region":"Latin America","logo":"juarez_roller_derby__(womens).jpg","teams":[{"name":"RDJ(W): Inquisidoras Roller Derby","ranking":543,"ranking_date":"2019-05-14","fts_code":94020},{"name":"RDJ(W): Black Dahlias roller Derby","ranking":904,"ranking_date":"2019-05-14","fts_code":94022},{"name":"All-stars","ranking":279,"ranking_date":"2019-05-14","fts_code":37434}]},{"name":"Kamikazes Roller Derby","country":"Argentina","city":"Berazategui","lat":-34.7633,"long":-58.2117,"region":"Latin America","logo":"kamikazes_roller_derby.jpg","teams":[{"name":"All-stars","ranking":1378,"ranking_date":"2019-05-14","fts_code":55416}]},{"name":"La Gaucha Roller Derby League","country":"Brazil","city":"Uruguaiana","lat":-29.7655,"long":-57.0829,"region":"Latin America","logo":"la_gaucha_roller_derby_league.jpg","teams":[{"name":"All-stars","ranking":null,"ranking_date":null,"fts_code":55817}]},{"name":"La Plata Roller Derby","country":"Argentina","city":"Berazategui","lat":-34.7487,"long":-58.1984,"region":"Latin America","logo":"la_plata_roller_derby.jpg","teams":[{"name":"Chat Noir","ranking":null,"ranking_date":null,"fts_code":55421}]},{"name":"Ladies of Helltown","country":"Brazil","city":"São Paulo","lat":-23.5507,"long":-46.6334,"region":"Latin America","logo":"ladies_of_helltown.jpg","teams":[{"name":"All-stars","ranking":647,"ranking_date":"2019-05-14","fts_code":25409}]},{"name":"Lado Oscuro Roller Derby Mendoza","country":"Argentina","city":"Mendoza","lat":-32.8897,"long":-68.8443,"region":"Latin America","logo":"lado_oscuro_roller_derby_mendoza.jpg","teams":[{"name":"All-stars","ranking":1163,"ranking_date":"2019-05-14","fts_code":55436}]},{"name":"Las José Cuchillo Roller Derby","country":"Argentina","city":"José C. Paz","lat":-34.5119,"long":-58.7777,"region":"Latin America","logo":"las_josé_cuchillo_roller_derby.jpg","teams":[{"name":"All-stars","ranking":1749,"ranking_date":"2019-05-14","fts_code":86916}]},{"name":"Lechuzas Roller Derby","country":"Mexico","city":"Morelia","lat":19.7027,"long":-101.192,"region":"Latin America","logo":"lechuzas_roller_derby.jpg","teams":[{"name":"All-stars","ranking":1573,"ranking_date":"2019-05-14","fts_code":96542}]},{"name":"León Roller Derby","country":"Mexico","city":"León","lat":21.1219,"long":-101.683,"region":"Latin America","logo":"león_roller_derby.jpg","teams":[{"name":"All-stars","ranking":1737,"ranking_date":"2019-05-14","fts_code":56159}]},{"name":"Licántropos RDN","country":"Argentina","city":"Neuquén","lat":-38.9549,"long":-68.0593,"region":"Latin America","logo":"licántropos_rdn.jpg","teams":[{"name":"All-stars","ranking":1417,"ranking_date":"2019-05-14","fts_code":105620}]},{"name":"Liga Combativas Revoltosas","country":"Colombia","city":"Bogotá","lat":4.59808,"long":-74.0761,"region":"Latin America","logo":"liga_combativas_revoltosas.jpg","teams":[{"name":"All-stars","ranking":299,"ranking_date":"2019-05-14","fts_code":36759}]},{"name":"Liga Dirty Fucking Dolls","country":"Argentina","city":"Temperley","lat":-34.7758,"long":-58.3969,"region":"Latin America","logo":"liga_dirty_fucking_dolls.jpg","teams":[{"name":"All Stars","ranking":636,"ranking_date":"2019-05-14","fts_code":25317}]},{"name":"Liga Freak Army Roller Derby","country":"Argentina","city":"Córdoba","lat":-31.4173,"long":-64.1833,"region":"Latin America","logo":"liga_freak_army_roller_derby.jpg","teams":[{"name":"All-stars","ranking":null,"ranking_date":null,"fts_code":55433}]},{"name":"Liga Rio Gallegos Roller Derby","country":"Argentina","city":"Río Gallegos","lat":-51.6245,"long":-69.2385,"region":"Latin America","logo":"liga_rio_gallegos_roller_derby.jpg","teams":[{"name":"All-stars","ranking":null,"ranking_date":null,"fts_code":55440}]},{"name":"Liga Roller Derby Ciudad de México (Womens)","country":"Mexico","city":"Mexico City","lat":19.4326,"long":-99.1333,"region":"Latin America","logo":"liga_roller_derby_ciudad_de_méxico_(womens).jpg","teams":[{"name":"LRDCM (W): Burdel Zombie","ranking":1382,"ranking_date":"2019-05-14","fts_code":25175},{"name":"LRDCM (W): TeKillerAss","ranking":995,"ranking_date":"2019-05-14","fts_code":25176},{"name":"LRDCM (W): Aniquiladoras","ranking":870,"ranking_date":"2019-05-14","fts_code":56067},{"name":"Quimeras","ranking":391,"ranking_date":"2019-05-14","fts_code":13355}]},{"name":"Liga Roller Derby Neuquen","country":"Argentina","city":"Neuquén","lat":-38.9549,"long":-68.0593,"region":"Latin America","logo":"liga_roller_derby_neuquen.jpg","teams":[{"name":"Hienas de la Calle","ranking":882,"ranking_date":"2019-05-14","fts_code":55437}]},{"name":"Liga Roller Derby Temuco","country":"Chile","city":"Temuco","lat":-38.7362,"long":-72.5906,"region":"Latin America","logo":"liga_roller_derby_temuco.jpg","teams":[{"name":"Nativas","ranking":1900,"ranking_date":"2019-05-14","fts_code":56113}]},{"name":"Liga Roller Derby Tijuana (Womens)","country":"Mexico","city":"Rosarito","lat":32.3541,"long":-117.049,"region":"Latin America","logo":"liga_roller_derby_tijuana_(womens).jpg","teams":[{"name":"All-stars","ranking":null,"ranking_date":null,"fts_code":56153}]},{"name":"Liga Tamaulipas Roller Derby","country":"Mexico","city":"Matamoros","lat":25.8705,"long":-97.5067,"region":"Latin America","logo":"liga_tamaulipas_roller_derby.jpg","teams":[{"name":"All-stars","ranking":1950,"ranking_date":"2019-05-14","fts_code":103250},{"name":"TRD: Jaibronas Roller Derby Tampico Madero","ranking":1941,"ranking_date":"2019-05-14","fts_code":108901},{"name":"TRD: Fairy Dust Roller Derby","ranking":1928,"ranking_date":"2019-05-14","fts_code":93511}]},{"name":"Little London Derby Girls","country":"Brazil","city":"Londrina","lat":-23.3113,"long":-51.1595,"region":"Latin America","logo":"little_london_derby_girls.jpg","teams":[{"name":"All-stars","ranking":null,"ranking_date":null,"fts_code":55810}]},{"name":"Mad Monkeys Roller Derby","country":"Argentina","city":"Rosario","lat":-32.9595,"long":-60.6615,"region":"Latin America","logo":"mad_monkeys_roller_derby.jpg","teams":[{"name":"All-stars","ranking":1142,"ranking_date":"2019-05-14","fts_code":100561}]},{"name":"Makiabellas Roller Derby","country":"Colombia","city":"Quimbaya","lat":4.62339,"long":-75.7621,"region":"Latin America","logo":"makiabellas_roller_derby.jpg","teams":[{"name":"All-stars","ranking":null,"ranking_date":null,"fts_code":56140}]},{"name":"Malditas Bastardas","country":"Argentina","city":"San Carlos de Bariloche","lat":-41.1335,"long":-71.31,"region":"Latin America","logo":"malditas_bastardas.jpg","teams":[{"name":"All-stars","ranking":null,"ranking_date":null,"fts_code":55439}]},{"name":"Malditas Lisiadas Roller Derby","country":"Argentina","city":"Salta","lat":-24.7893,"long":-65.4103,"region":"Latin America","logo":"malditas_lisiadas_roller_derby.jpg","teams":[{"name":"All-stars","ranking":743,"ranking_date":"2019-05-14","fts_code":94321}]},{"name":"Mandrágoras Roller Derby","country":"Argentina","city":"General Roca","lat":-39.0266,"long":-67.5755,"region":"Latin America","logo":"mandrágoras_roller_derby.jpg","teams":[{"name":"All-stars","ranking":931,"ranking_date":"2019-05-14","fts_code":88317}]},{"name":"MDQueens Roller Derby","country":"Argentina","city":"Ingeniero Juan Allan","lat":-34.8663,"long":-58.1801,"region":"Latin America","logo":"mdqueens_roller_derby.jpg","teams":[{"name":"All-stars","ranking":1130,"ranking_date":"2019-05-14","fts_code":55424},{"name":"MDQD: Royal C","ranking":599,"ranking_date":"2019-05-14","fts_code":96299}]},{"name":"MEAT Machine","country":"Brazil","city":"Campo Grande","lat":-20.464,"long":-54.6163,"region":"Latin America","logo":"meat_machine.jpg","teams":[{"name":"All-stars","ranking":null,"ranking_date":null,"fts_code":55805}]},{"name":"Medias Rotas Roller Derby","country":"Mexico","city":"Ciudad Juárez","lat":31.7386,"long":-106.486,"region":"Latin America","logo":"medias_rotas_roller_derby.jpg","teams":[{"name":"Medias Rotas","ranking":594,"ranking_date":"2019-05-14","fts_code":88268}]},{"name":"Metropolitan Roller Derby","country":"Chile","city":"Santiago","lat":-33.4378,"long":-70.6504,"region":"Latin America","logo":"metropolitan_roller_derby.jpg","teams":[{"name":"MRDC: Bayonetas","ranking":673,"ranking_date":"2019-05-14","fts_code":46082},{"name":"All-stars","ranking":88,"ranking_date":"2019-05-14","fts_code":36754}]},{"name":"Mexico City Roller Derby","country":"Mexico","city":"Mexico City","lat":19.4326,"long":-99.1333,"region":"Latin America","logo":"mexico_city_roller_derby.jpg","teams":[{"name":"MCRD: Quadtlicues","ranking":1474,"ranking_date":"2019-05-14","fts_code":92801},{"name":"All Stars","ranking":348,"ranking_date":"2019-05-14","fts_code":88234}]},{"name":"Midwest Butchers","country":"Brazil","city":"Goiânia","lat":-16.6809,"long":-49.2533,"region":"Latin America","logo":"midwest_butchers.jpg","teams":[{"name":"All-stars","ranking":null,"ranking_date":null,"fts_code":55804}]},{"name":"Monterrey Roller Derby (Womens)","country":"Mexico","city":"Monterrey","lat":25.6697,"long":-100.318,"region":"Latin America","logo":"monterrey_roller_derby_(womens).jpg","teams":[{"name":"Monterrey All-stars","ranking":1468,"ranking_date":"2019-05-14","fts_code":13351}]},{"name":"Mortal Kollas Roller Derby","country":"Argentina","city":"San Salvador de Jujuy","lat":-24.1853,"long":-65.2995,"region":"Latin America","logo":"mortal_kollas_roller_derby.jpg","teams":[{"name":"All-stars","ranking":872,"ranking_date":"2019-05-14","fts_code":94323}]},{"name":"MXRD (Womens)","country":"Mexico","city":"Mexico City","lat":19.3642,"long":-99.1629,"region":"Latin America","logo":"mxrd_(womens).jpg","teams":[{"name":"MXRD: Bastardettes","ranking":null,"ranking_date":null,"fts_code":56066},{"name":"Disasters","ranking":1697,"ranking_date":"2019-05-14","fts_code":25271}]},{"name":"Navy Dolls Roller Derby","country":"Argentina","city":"Córdoba","lat":-31.4173,"long":-64.1833,"region":"Latin America","logo":"navy_dolls_roller_derby.jpg","teams":[{"name":"All-stars","ranking":null,"ranking_date":null,"fts_code":55434}]},{"name":"Nebulosas Roller Derby Queretaro","country":"Mexico","city":"Querétaro","lat":20.5834,"long":-100.343,"region":"Latin America","logo":"nebulosas_roller_derby_queretaro.jpg","teams":[{"name":"All-stars","ranking":1726,"ranking_date":"2019-05-14","fts_code":92313}]},{"name":"Ninfas Roller Derby (Womens)","country":"Mexico","city":"Mexico City","lat":19.4326,"long":-99.1333,"region":"Latin America","logo":"ninfas_roller_derby_(womens).jpg","teams":[{"name":"All-stars","ranking":null,"ranking_date":null,"fts_code":56157}]},{"name":"No Excuses Roller Derby","country":"Argentina","city":"Buenos Aires","lat":-34.6076,"long":-58.4371,"region":"Latin America","logo":"no_excuses_roller_derby.jpg","teams":[{"name":"All-stars","ranking":null,"ranking_date":null,"fts_code":86910}]},{"name":"Octava Vida Roller Derby","country":"Chile","city":"Cabrero","lat":-37.0413,"long":-72.3733,"region":"Latin America","logo":"octava_vida_roller_derby.jpg","teams":[{"name":"HellDolls","ranking":null,"ranking_date":null,"fts_code":56115}]},{"name":"Olivia Salvaje Roller Derby","country":"Argentina","city":"Caleta Olivia","lat":-46.4421,"long":-67.5175,"region":"Latin America","logo":"olivia_salvaje_roller_derby.jpg","teams":[{"name":"All-stars","ranking":932,"ranking_date":"2019-05-14","fts_code":95178}]},{"name":"Ovejas Negras: Roller Derby Morelia","country":"Mexico","city":"Morelia","lat":19.7027,"long":-101.192,"region":"Latin America","logo":"ovejas_negras:_roller_derby_morelia.jpg","teams":[{"name":"Ovejas Negras","ranking":1281,"ranking_date":"2019-05-14","fts_code":56166}]},{"name":"Pájaros Pintados Roller Derby","country":"Uruguay","city":"Montevideo","lat":-34.9059,"long":-56.1914,"region":"Latin America","logo":"pájaros_pintados_roller_derby.jpg","teams":[{"name":"All-stars","ranking":1204,"ranking_date":"2019-05-14","fts_code":98812}]},{"name":"Pandoras Roller Derby","country":"Chile","city":"La Serena","lat":-29.9027,"long":-71.252,"region":"Latin America","logo":"pandoras_roller_derby.jpg","teams":[{"name":"All-stars","ranking":null,"ranking_date":null,"fts_code":56117}]},{"name":"Pergamino Roller Derby","country":"Argentina","city":"Pergamino","lat":-33.8951,"long":-60.5664,"region":"Latin America","logo":"pergamino_roller_derby.jpg","teams":[{"name":"Las Motherfuckers","ranking":null,"ranking_date":null,"fts_code":87446}]},{"name":"Pink Sucks Roller Derby","country":"Colombia","city":"Bucaramanga","lat":7.11146,"long":-73.1173,"region":"Latin America","logo":"pink_sucks_roller_derby.jpg","teams":[{"name":"All-stars","ranking":1252,"ranking_date":"2019-05-14","fts_code":56102}]},{"name":"Piratas del Beagle Roller Derby","country":"Argentina","city":"Ushuaia","lat":-54.8069,"long":-68.3073,"region":"Latin America","logo":"piratas_del_beagle_roller_derby.jpg","teams":[{"name":"All-stars","ranking":1179,"ranking_date":"2019-05-14","fts_code":55443}]},{"name":"Psycho Rollers","country":"Argentina","city":"Buenos Aires","lat":-34.6076,"long":-58.4371,"region":"Latin America","logo":"psycho_rollers.jpg","teams":[{"name":"All-stars","ranking":null,"ranking_date":null,"fts_code":55420}]},{"name":"Puerto Madryn Roller Derby","country":"Argentina","city":"Puerto Madryn","lat":-42.773,"long":-65.0366,"region":"Latin America","logo":"puerto_madryn_roller_derby.jpg","teams":[{"name":"All-stars","ranking":1637,"ranking_date":"2019-05-14","fts_code":55430}]},{"name":"Quadtreras Roller Derby Aguascalientes","country":"Mexico","city":"Aguascalientes","lat":21.8807,"long":-102.296,"region":"Latin America","logo":"quadtreras_roller_derby_aguascalientes.jpg","teams":[{"name":"All-stars","ranking":1948,"ranking_date":"2019-05-14","fts_code":56150}]},{"name":"Savanna Foxes","country":"Brazil","city":"Brasília","lat":-15.7934,"long":-47.8823,"region":"Latin America","logo":"savanna_foxes.jpg","teams":[{"name":"All-stars","ranking":null,"ranking_date":null,"fts_code":55800}]},{"name":"Quimeras Roller Derby Neuquen","country":"Argentina","city":"Neuquén","lat":-38.9549,"long":-68.0593,"region":"Latin America","logo":"quimeras_roller_derby_neuquen.jpg","teams":[{"name":"All-stars","ranking":1843,"ranking_date":"2019-05-14","fts_code":88320}]},{"name":"Radiactivas Roller Derby","country":"Colombia","city":"Santiago de Cali","lat":3.43193,"long":-76.5113,"region":"Latin America","logo":"radiactivas_roller_derby.jpg","teams":[{"name":"All-stars","ranking":null,"ranking_date":null,"fts_code":56145}]},{"name":"Railways Roller Derby Aguascalientes","country":"Mexico","city":"Aguascalientes","lat":21.8807,"long":-102.296,"region":"Latin America","logo":"railways_roller_derby_aguascalientes.jpg","teams":[{"name":"All-stars","ranking":1807,"ranking_date":"2019-05-14","fts_code":88267}]},{"name":"Rancahuasas Roller Derby","country":"Chile","city":"Rancagua","lat":-34.1702,"long":-70.7407,"region":"Latin America","logo":"rancahuasas_roller_derby.jpg","teams":[{"name":"All-stars","ranking":null,"ranking_date":null,"fts_code":56118}]},{"name":"Rayo Naranja Roller Derby (Womens)","country":"Argentina","city":"San Miguel de Tucumán","lat":-26.8304,"long":-65.2038,"region":"Latin America","logo":"rayo_naranja_roller_derby_(womens).jpg","teams":[{"name":"Centellas","ranking":1342,"ranking_date":"2019-05-14","fts_code":55444}]},{"name":"Rebeldes del Asfalto Roller Derby","country":"Argentina","city":"Mar del Plata","lat":-37.9977,"long":-57.5483,"region":"Latin America","logo":"rebeldes_del_asfalto_roller_derby.jpg","teams":[{"name":"All-stars","ranking":null,"ranking_date":null,"fts_code":109893}]},{"name":"Red Feet Roller Derby","country":"Brazil","city":"Viana","lat":-20.3519,"long":-40.4235,"region":"Latin America","logo":"red_feet_roller_derby.jpg","teams":[{"name":"All-stars","ranking":null,"ranking_date":null,"fts_code":55819}]},{"name":"Revolución Roller Derby","country":"Argentina","city":"San Carlos de Bariloche","lat":-41.1335,"long":-71.31,"region":"Latin America","logo":"revolución_roller_derby.jpg","teams":[{"name":"All-stars","ranking":1699,"ranking_date":"2019-05-14","fts_code":104345}]},{"name":"Rio Riot Roller Derby","country":"Brazil","city":"Rio de Janeiro","lat":-22.911,"long":-43.2094,"region":"Latin America","logo":"rio_riot_roller_derby.jpg","teams":[{"name":"All-stars","ranking":null,"ranking_date":null,"fts_code":55811}]},{"name":"Risky Dolls Roller Derby Neuquen","country":"Argentina","city":"Neuquén","lat":-38.9549,"long":-68.0593,"region":"Latin America","logo":"risky_dolls_roller_derby_neuquen.jpg","teams":[{"name":"Risky Dolls","ranking":1850,"ranking_date":"2019-05-14","fts_code":55438}]},{"name":"Rock City Roller Derby","country":"Mexico","city":"Querétaro","lat":20.5834,"long":-100.343,"region":"Latin America","logo":"rock_city_roller_derby.jpg","teams":[{"name":"RCRD: Nymerias Roller Derby","ranking":1739,"ranking_date":"2019-05-14","fts_code":103813},{"name":"RCRD: Ravens","ranking":628,"ranking_date":"2019-05-14","fts_code":25179},{"name":"All Stars","ranking":611,"ranking_date":"2019-05-14","fts_code":13356}]},{"name":"Rock N Roller Queens","country":"Colombia","city":"Bogotá","lat":4.59808,"long":-74.0761,"region":"Latin America","logo":"rock_n_roller_queens.jpg","teams":[{"name":"RNRQ: Queens","ranking":1827,"ranking_date":"2019-05-14","fts_code":87619},{"name":"All-stars","ranking":274,"ranking_date":"2019-05-14","fts_code":16741}]},{"name":"Roller Derby Alagoas","country":"Brazil","city":"Maceió","lat":-9.64768,"long":-35.7339,"region":"Latin America","logo":"roller_derby_alagoas.jpg","teams":[{"name":"All-stars","ranking":null,"ranking_date":null,"fts_code":55798}]},{"name":"Roller Derby Bogota Guarichas","country":"Colombia","city":"Bogotá","lat":4.59808,"long":-74.0761,"region":"Latin America","logo":"roller_derby_bogota_guarichas.jpg","teams":[{"name":"All-stars","ranking":null,"ranking_date":null,"fts_code":56138}]},{"name":"Roller Derby Cancùn","country":"Mexico","city":"Cancún","lat":21.1618,"long":-86.851,"region":"Latin America","logo":"roller_derby_cancùn.jpg","teams":[{"name":"Reinas Rojas","ranking":1888,"ranking_date":"2019-05-14","fts_code":56168}]},{"name":"Roller Derby Celaya","country":"Mexico","city":"Celaya","lat":20.5218,"long":-100.814,"region":"Latin America","logo":"roller_derby_celaya.jpg","teams":[{"name":"Delicious Wheels","ranking":1386,"ranking_date":"2019-05-14","fts_code":56158}]},{"name":"Roller Derby Chihuahua","country":"Mexico","city":"Chihuahua City","lat":28.6606,"long":-106.075,"region":"Latin America","logo":"roller_derby_chihuahua.jpg","teams":[{"name":"All-stars","ranking":null,"ranking_date":null,"fts_code":56156}]},{"name":"Roller Derby Ciudad Victoria","country":"Mexico","city":"Ciudad Victoria","lat":23.744,"long":-99.1419,"region":"Latin America","logo":"roller_derby_ciudad_victoria.jpg","teams":[{"name":"Cherry Skeletors","ranking":null,"ranking_date":null,"fts_code":24555}]},{"name":"Roller Derby Concepcion","country":"Chile","city":"Cabrero","lat":-37.0413,"long":-72.3733,"region":"Latin America","logo":"roller_derby_concepcion.jpg","teams":[{"name":"All-stars","ranking":null,"ranking_date":null,"fts_code":56116}]},{"name":"Roller Derby Costa Rica","country":"Costa Rica","city":"San José","lat":9.93254,"long":-84.0796,"region":"Latin America","logo":"roller_derby_costa_rica.jpg","teams":[{"name":"Panties Dinamita","ranking":null,"ranking_date":null,"fts_code":56148}]},{"name":"Roller Derby Cuautitlán Izcalli","country":"Mexico","city":"Cuautitlán Izcalli","lat":19.6531,"long":-99.2145,"region":"Latin America","logo":"roller_derby_cuautitlán_izcalli.jpg","teams":[{"name":"All-stars","ranking":null,"ranking_date":null,"fts_code":56163}]},{"name":"Roller Derby de Puerto Varas","country":"Chile","city":"Puerto Varas","lat":-41.191,"long":-72.3875,"region":"Latin America","logo":"roller_derby_de_puerto_varas.jpg","teams":[{"name":"Diosas Volcánicas","ranking":1300,"ranking_date":"2019-05-14","fts_code":96423}]},{"name":"Roller Derby Ensenada (Womens)","country":"Mexico","city":"Ensenada","lat":31.7286,"long":-116.578,"region":"Latin America","logo":"roller_derby_ensenada_(womens).jpg","teams":[{"name":"Ensenada","ranking":1072,"ranking_date":"2019-05-14","fts_code":37436}]},{"name":"Roller Derby Freyjas","country":"Mexico","city":"León","lat":21.1219,"long":-101.683,"region":"Latin America","logo":"roller_derby_freyjas.jpg","teams":[{"name":"All-stars","ranking":1936,"ranking_date":"2019-05-14","fts_code":103377}]},{"name":"Roller Derby Guadalajara (Womens)","country":"Mexico","city":"Guadalajara","lat":20.6761,"long":-103.347,"region":"Latin America","logo":"roller_derby_guadalajara_(womens).jpg","teams":[{"name":"Minervas","ranking":375,"ranking_date":"2019-05-14","fts_code":13352}]},{"name":"Roller Derby Hidalgo","country":"Mexico","city":"Pachuca","lat":20.1165,"long":-98.7414,"region":"Latin America","logo":"roller_derby_hidalgo.jpg","teams":[{"name":"RDH: Killer Dolls","ranking":1877,"ranking_date":"2019-05-14","fts_code":104172},{"name":"RDH: Black Mambas","ranking":1644,"ranking_date":"2019-05-14","fts_code":89616},{"name":"Medusas","ranking":1560,"ranking_date":"2019-05-14","fts_code":56160}]},{"name":"Roller Derby Ibagué","country":"Colombia","city":"Ibagué","lat":4.44466,"long":-75.243,"region":"Latin America","logo":"roller_derby_ibagué.jpg","teams":[{"name":"Pain Dealers","ranking":736,"ranking_date":"2019-05-14","fts_code":56143}]},{"name":"Roller Derby Manizales","country":"Colombia","city":"Manizales","lat":5.0646,"long":-75.4992,"region":"Latin America","logo":"roller_derby_manizales.jpg","teams":[{"name":"Dinamita","ranking":null,"ranking_date":null,"fts_code":25387}]},{"name":"Roller Derby Medellin","country":"Colombia","city":"Medellín","lat":6.24434,"long":-75.5736,"region":"Latin America","logo":"roller_derby_medellin.jpg","teams":[{"name":"Spring City Rollers","ranking":400,"ranking_date":"2019-05-14","fts_code":56128}]},{"name":"Roller Derby Mérida Yucatán (Womens)","country":"Mexico","city":"Mérida","lat":20.9671,"long":-89.6237,"region":"Latin America","logo":"roller_derby_mérida_yucatán_(womens).jpg","teams":[{"name":"Boas Terror","ranking":1934,"ranking_date":"2019-05-14","fts_code":13357}]},{"name":"Roller Derby Mexicali (Womens)","country":"Mexico","city":"Mexicali","lat":32.6201,"long":-115.444,"region":"Latin America","logo":"roller_derby_mexicali_(womens).jpg","teams":[{"name":"Rosies","ranking":null,"ranking_date":null,"fts_code":56152}]},{"name":"Roller Derby Morelia","country":"Mexico","city":"Morelia","lat":19.7027,"long":-101.192,"region":"Latin America","logo":"roller_derby_morelia.jpg","teams":[{"name":"All-stars","ranking":null,"ranking_date":null,"fts_code":25574}]},{"name":"Roller Derby Osorno","country":"Chile","city":"Osorno","lat":-40.5733,"long":-73.1359,"region":"Latin America","logo":"roller_derby_osorno.jpg","teams":[{"name":"All-stars","ranking":null,"ranking_date":null,"fts_code":56120}]},{"name":"Roller Derby Palmira","country":"Colombia","city":"Palmira","lat":3.53084,"long":-76.2988,"region":"Latin America","logo":"roller_derby_palmira.jpg","teams":[{"name":"Titanias","ranking":555,"ranking_date":"2019-05-14","fts_code":56146}]},{"name":"Roller Derby Pelotas","country":"Brazil","city":"Pelotas","lat":-31.77,"long":-52.341,"region":"Latin America","logo":"roller_derby_pelotas.jpg","teams":[{"name":"All-stars","ranking":null,"ranking_date":null,"fts_code":55813}]},{"name":"Roller Derby Pereira","country":"Colombia","city":"Pereira","lat":4.80348,"long":-75.8128,"region":"Latin America","logo":"roller_derby_pereira.jpg","teams":[{"name":"Cheetaras","ranking":null,"ranking_date":null,"fts_code":25385}]},{"name":"Roller Derby Puebla (Womens)","country":"Mexico","city":"Puebla","lat":19.0847,"long":-98.1928,"region":"Latin America","logo":"roller_derby_puebla_(womens).jpg","teams":[{"name":"RDP(W): Arpías","ranking":1670,"ranking_date":"2019-05-14","fts_code":56167},{"name":"RDP(W): Lobas","ranking":1702,"ranking_date":"2019-05-14","fts_code":103819},{"name":"Furias Negras","ranking":1467,"ranking_date":"2019-05-14","fts_code":94418}]},{"name":"Roller Derby Queretaro","country":"Mexico","city":"Santiago","lat":25.4253,"long":-100.152,"region":"Latin America","logo":"roller_derby_queretaro.jpg","teams":[{"name":"Derby Force","ranking":null,"ranking_date":null,"fts_code":13354}]},{"name":"Roller Derby SLP (Womens)","country":"Mexico","city":"San Luis Potosí City","lat":22.1516,"long":-100.976,"region":"Latin America","logo":"roller_derby_slp_(womens).jpg","teams":[{"name":"All-stars","ranking":null,"ranking_date":null,"fts_code":28445}]},{"name":"Roller Derby Toluca (Womens)","country":"Mexico","city":"Lerma de Villada","lat":19.2839,"long":-99.5047,"region":"Latin America","logo":"roller_derby_toluca_(womens).jpg","teams":[{"name":"RDT(W): Ánimas","ranking":null,"ranking_date":null,"fts_code":95958},{"name":"Reptilias","ranking":1792,"ranking_date":"2019-05-14","fts_code":56165}]},{"name":"Roller Derby Valdivia","country":"Chile","city":"Valdivia","lat":-39.8142,"long":-73.2459,"region":"Latin America","logo":"roller_derby_valdivia.jpg","teams":[{"name":"Indómitas","ranking":1119,"ranking_date":"2019-05-14","fts_code":56121}]},{"name":"Roller Derby Veracruz","country":"Mexico","city":"Veracruz","lat":19.14,"long":-96.1486,"region":"Latin America","logo":"roller_derby_veracruz.jpg","teams":[{"name":"All-stars","ranking":1471,"ranking_date":"2019-05-14","fts_code":56169}]},{"name":"Roller Derby Xalapa (Women)","country":"Mexico","city":"Xalapa","lat":19.5274,"long":-96.9239,"region":"Latin America","logo":"roller_derby_xalapa_(women).jpg","teams":[{"name":"Rafagas","ranking":1730,"ranking_date":"2019-05-14","fts_code":102067}]},{"name":"Rosario Roller Derby","country":"Argentina","city":"Cordoba","lat":-31.4152,"long":-64.1628,"region":"Latin America","logo":"rosario_roller_derby.jpg","teams":[{"name":"All-stars","ranking":null,"ranking_date":null,"fts_code":55441}]},{"name":"Royal Victory Derby Girls","country":"Brazil","city":"Manaus","lat":-3.13163,"long":-59.9825,"region":"Latin America","logo":"royal_victory_derby_girls.jpg","teams":[{"name":"All-stars","ranking":null,"ranking_date":null,"fts_code":55799}]},{"name":"Runaways Roller Derby","country":"Brazil","city":"Belo Horizonte","lat":-19.9227,"long":-43.9451,"region":"Latin America","logo":"runaways_roller_derby.jpg","teams":[{"name":"All-stars","ranking":null,"ranking_date":null,"fts_code":55806}]},{"name":"Sailor City Rollers","country":"Argentina","city":"Buenos Aires","lat":-34.6076,"long":-58.4371,"region":"Latin America","logo":"sailor_city_rollers.jpg","teams":[{"name":"SCR: Deadly Krakens","ranking":null,"ranking_date":null,"fts_code":97217},{"name":"SCR: Hellfish","ranking":null,"ranking_date":null,"fts_code":97218},{"name":"SCR: Sea Monsters","ranking":965,"ranking_date":"2019-05-14","fts_code":76028},{"name":"SCR: Tsunami Bombs","ranking":455,"ranking_date":"2019-05-14","fts_code":76027},{"name":"SCR All-Stars","ranking":57,"ranking_date":"2019-05-14","fts_code":25184}]},{"name":"Santa's Hell Roller Derby","country":"Argentina","city":"Santa Fe","lat":-31.6187,"long":-60.702,"region":"Latin America","logo":"santa's_hell_roller_derby.jpg","teams":[{"name":"All-stars","ranking":1085,"ranking_date":"2019-05-14","fts_code":55442}]},{"name":"Santiago City Roller Girls","country":"Chile","city":"Santiago","lat":-33.4378,"long":-70.6504,"region":"Latin America","logo":"santiago_city_roller_girls.jpg","teams":[{"name":"All-stars","ranking":null,"ranking_date":null,"fts_code":56123}]},{"name":"SarcastiCats Roller Derby Mendoza","country":"Argentina","city":"Mendoza","lat":-32.8897,"long":-68.8443,"region":"Latin America","logo":"sarcasticats_roller_derby_mendoza.jpg","teams":[{"name":"All-stars","ranking":855,"ranking_date":"2019-05-14","fts_code":91792}]},{"name":"Sicodelicas Roller Derby","country":"Colombia","city":"Manizales","lat":5.0646,"long":-75.4992,"region":"Latin America","logo":"sicodelicas_roller_derby.jpg","teams":[{"name":"All-stars","ranking":null,"ranking_date":null,"fts_code":56131}]},{"name":"Silver City Roller Derby","country":"Argentina","city":"La Plata","lat":-34.9207,"long":-57.9538,"region":"Latin America","logo":"silver_city_roller_derby.jpg","teams":[{"name":"SCRD: La Dinastia","ranking":1579,"ranking_date":"2019-05-14","fts_code":55422},{"name":"SCRD: Parias Roller Derby","ranking":null,"ranking_date":null,"fts_code":55423},{"name":"SCRD: Chat Noir Roller Derby","ranking":1425,"ranking_date":"2019-05-14","fts_code":42814},{"name":"All-stars","ranking":1176,"ranking_date":"2019-05-14","fts_code":98804}]},{"name":"Silver Lynx Roller Derby Cali","country":"Colombia","city":"Santiago de Cali","lat":3.43193,"long":-76.5113,"region":"Latin America","logo":"silver_lynx_roller_derby_cali.jpg","teams":[{"name":"Silver Lynx","ranking":1556,"ranking_date":"2019-05-14","fts_code":94008}]},{"name":"Soulless Witches Roller Derby","country":"Brazil","city":"Curitiba","lat":-25.4296,"long":-49.2713,"region":"Latin America","logo":"soulless_witches_roller_derby.jpg","teams":[{"name":"All-stars","ranking":null,"ranking_date":null,"fts_code":55809}]},{"name":"Sudestada Roller Derby Necochea","country":"Argentina","city":"Necochea","lat":-38.5545,"long":-58.7393,"region":"Latin America","logo":"sudestada_roller_derby_necochea.jpg","teams":[{"name":"All-stars","ranking":1508,"ranking_date":"2019-05-14","fts_code":101618}]},{"name":"Sugar Loathe Roller Derby","country":"Brazil","city":"Rio de Janeiro","lat":-22.911,"long":-43.2094,"region":"Latin America","logo":"sugar_loathe_roller_derby.jpg","teams":[{"name":"Candy Crushers","ranking":1144,"ranking_date":"2019-05-14","fts_code":25410}]},{"name":"Tacones Bandidos Roller Derby","country":"Chile","city":"Viña del Mar","lat":-33.0245,"long":-71.5518,"region":"Latin America","logo":"tacones_bandidos_roller_derby.jpg","teams":[{"name":"All-stars","ranking":368,"ranking_date":"2019-05-14","fts_code":46081}]},{"name":"Team Estado de México","country":"Philippines","city":"Mexico","lat":15.0648,"long":120.72,"region":"Latin America","logo":"team_estado_de_méxico.jpg","teams":[{"name":"All-stars","ranking":null,"ranking_date":null,"fts_code":107496}]},{"name":"Team Guanajuato Roller Derby","country":"Mexico","city":"León","lat":21.1219,"long":-101.683,"region":"Latin America","logo":"team_guanajuato_roller_derby.jpg","teams":[{"name":"All-stars","ranking":null,"ranking_date":null,"fts_code":60215}]},{"name":"The Painted Birds Roller Derby","country":"Uruguay","city":"Montevideo","lat":-34.9059,"long":-56.1914,"region":"Latin America","logo":"the_painted_birds_roller_derby.jpg","teams":[{"name":"All-stars","ranking":867,"ranking_date":"2019-05-14","fts_code":56175}]},{"name":"Thunder Rats Derby Squad","country":"Brazil","city":"Santos","lat":-23.9608,"long":-46.3339,"region":"Latin America","logo":"thunder_rats_derby_squad.jpg","teams":[{"name":"All-stars","ranking":1540,"ranking_date":"2019-05-14","fts_code":55821}]},{"name":"Tijuana Roller Derby Girls","country":"Mexico","city":"Rosarito","lat":32.3541,"long":-117.049,"region":"Latin America","logo":"tijuana_roller_derby_girls.jpg","teams":[{"name":"All-stars","ranking":null,"ranking_date":null,"fts_code":13359}]},{"name":"Toxic Lima Rollergirls","country":"Peru","city":"Lima","lat":-12.0621,"long":-77.0365,"region":"Latin America","logo":"toxic_lima_rollergirls.jpg","teams":[{"name":"TLRD: Terror de la Selva","ranking":null,"ranking_date":null,"fts_code":56174},{"name":"TLRD: Furia Marina","ranking":null,"ranking_date":null,"fts_code":56173},{"name":"All-stars","ranking":883,"ranking_date":"2019-05-14","fts_code":36756}]},{"name":"Tropic Terrors Derby League","country":"Philippines","city":"San Juan 1","lat":14.3819,"long":120.878,"region":"Latin America","logo":"tropic_terrors_derby_league.jpg","teams":[{"name":"All-stars","ranking":null,"ranking_date":null,"fts_code":16744}]},{"name":"Tucumán Roller Derby","country":"Argentina","city":"San Miguel de Tucumán","lat":-26.8304,"long":-65.2038,"region":"Latin America","logo":"tucumán_roller_derby.jpg","teams":[{"name":"Las Demoños","ranking":980,"ranking_date":"2019-05-14","fts_code":44891}]},{"name":"Unión Subversiva Roller Derby","country":"Philippines","city":"Santiago","lat":16.6881,"long":121.549,"region":"Latin America","logo":"unión_subversiva_roller_derby.jpg","teams":[{"name":"All-stars","ranking":1672,"ranking_date":"2019-05-14","fts_code":97750}]},{"name":"Valkirias Roller Derby","country":"Mexico","city":"Mexico City","lat":19.4326,"long":-99.1333,"region":"Latin America","logo":"valkirias_roller_derby.jpg","teams":[{"name":"All-stars","ranking":null,"ranking_date":null,"fts_code":93644}]},{"name":"Valkyrias Roller Derby","country":"Colombia","city":"Manizales","lat":5.0646,"long":-75.4992,"region":"Latin America","logo":"valkyrias_roller_derby.jpg","teams":[{"name":"All-stars","ranking":622,"ranking_date":"2019-05-14","fts_code":56132}]},{"name":"Violet Attack","country":"Colombia","city":"Ibagué","lat":4.44466,"long":-75.243,"region":"Latin America","logo":"violet_attack.jpg","teams":[{"name":"Violet Attack","ranking":1392,"ranking_date":"2019-05-14","fts_code":56103}]},{"name":"Vipers Roller Derby","country":"Mexico","city":"Rosarito","lat":32.3541,"long":-117.049,"region":"Latin America","logo":"vipers_roller_derby.jpg","teams":[{"name":"All-stars","ranking":1943,"ranking_date":"2019-05-14","fts_code":56154}]},{"name":"Vixens from Jungle Hell","country":"Brazil","city":"Belém","lat":-1.45056,"long":-48.4682,"region":"Latin America","logo":"vixens_from_jungle_hell.jpg","teams":[{"name":"All-stars","ranking":null,"ranking_date":null,"fts_code":55807}]},{"name":"Volcanicas Roller Derby (Womens)","country":"Argentina","city":"Temperley","lat":-34.7758,"long":-58.3969,"region":"Latin America","logo":"volcanicas_roller_derby_(womens).jpg","teams":[{"name":"All-stars","ranking":929,"ranking_date":"2019-05-14","fts_code":55427}]},{"name":"Warriors Roller Derby","country":"Argentina","city":"Buenos Aires","lat":-34.6076,"long":-58.4371,"region":"Latin America","logo":"warriors_roller_derby.jpg","teams":[{"name":"All-stars","ranking":1274,"ranking_date":"2019-05-14","fts_code":106113}]},{"name":"Wheels of Fire Roller Derby Club","country":"Brazil","city":"Porto Alegre","lat":-30.0325,"long":-51.2304,"region":"Latin America","logo":"wheels_of_fire_roller_derby_club.jpg","teams":[{"name":"All-stars","ranking":1140,"ranking_date":"2019-05-14","fts_code":55814}]},{"name":"Wonderclan Roller Derby (Womens)","country":"Argentina","city":"Acassuso","lat":-34.4764,"long":-58.5044,"region":"Latin America","logo":"wonderclan_roller_derby_(womens).jpg","teams":[{"name":"WRD (W): Cosmicclan","ranking":1416,"ranking_date":"2019-05-14","fts_code":87997},{"name":"All-stars","ranking":480,"ranking_date":"2019-05-14","fts_code":55413}]},{"name":"Xtabay Roller Derby Campeche","country":"Mexico","city":"Campeche","lat":19.8439,"long":-90.5255,"region":"Latin America","logo":"xtabay_roller_derby_campeche.jpg","teams":[{"name":"All-stars","ranking":null,"ranking_date":null,"fts_code":56155}]}]}