{
  "leagues": [
    {
      "name": "4 Corners Rollergirls",
      "country": "United States of America",
      "city": "Cortez",
      "lat": 27.4692,
      "long": -82.6863,
      "region": "USA",
      "logo": "4_corners_rollergirls.jpg",
      "teams": [
        {
          "name": "All-stars",
          "ranking": null,
          "ranking_date": null,
          "fts_code": 25832
        }
      ]
    },
    {
      "name": "575 Roller Derby",
      "country": "United States of America",
      "city": "Hobbs",
      "lat": 32.7026,
      "long": -103.136,
      "region": "USA",
      "logo": "575_roller_derby.jpg",
      "teams": [
        {
          "name": "Roughneck Roller Babes",
          "ranking": null,
          "ranking_date": null,
          "fts_code": 52864
        }
      ]
    },
    {
      "name": "580 Rollergirls",
      "country": "United States of America",
      "city": "Lawton",
      "lat": 42.1672,
      "long": -85.847,
      "region": "USA",
      "logo": "580_rollergirls.jpg",
      "teams": [
        {
          "name": "580 Rollergirls",
          "ranking": null,
          "ranking_date": null,
          "fts_code": 8607
        }
      ]
    },
    {
      "name": "A'Salt Creek Roller Girls",
      "country": "United States of America",
      "city": "Casper",
      "lat": 42.8666,
      "long": -106.313,
      "region": "USA",
      "logo": "a'salt_creek_roller_girls.jpg",
      "teams": [
        {
          "name": "All-stars",
          "ranking": null,
          "ranking_date": null,
          "fts_code": 20988
        }
      ]
    },
    {
      "name": "A-Town Roller Derby",
      "country": "United States of America",
      "city": "Anderson",
      "lat": 40.7706,
      "long": -74.9191,
      "region": "USA",
      "logo": "a-town_roller_derby.jpg",
      "teams": [
        {
          "name": "All-stars",
          "ranking": null,
          "ranking_date": null,
          "fts_code": 45846
        }
      ]
    },
    {
      "name": "A-Town Roller Girlz",
      "country": "United States of America",
      "city": "Aberdeen",
      "lat": 40.4071,
      "long": -74.2217,
      "region": "USA",
      "logo": "a-town_roller_girlz.jpg",
      "teams": [
        {
          "name": "All-stars",
          "ranking": null,
          "ranking_date": null,
          "fts_code": 25383
        }
      ]
    },
    {
      "name": "Abilene Roller Derby",
      "country": "United States of America",
      "city": "Abilene",
      "lat": 32.4466,
      "long": -99.7334,
      "region": "USA",
      "logo": "abilene_roller_derby.jpg",
      "teams": [
        {
          "name": "Sugarbombs",
          "ranking": null,
          "ranking_date": null,
          "fts_code": 11371
        }
      ]
    },
    {
      "name": "Acadiana Roller Derby",
      "country": "United States of America",
      "city": "Lafayette",
      "lat": 30.224,
      "long": -92.0199,
      "region": "USA",
      "logo": "acadiana_roller_derby.jpg",
      "teams": [
        {
          "name": "ARG: Vermillionvile Sirens",
          "ranking": null,
          "ranking_date": null,
          "fts_code": 35916
        },
        {
          "name": "All-stars",
          "ranking": null,
          "ranking_date": null,
          "fts_code": 8003
        }
      ]
    },
    {
      "name": "Adventure Coast Star Stompers Roller Derby",
      "country": "United States of America",
      "city": "Coos Bay",
      "lat": 43.3665,
      "long": -124.218,
      "region": "USA",
      "logo": "adventure_coast_star_stompers_roller_derby.jpg",
      "teams": [
        {
          "name": "All-stars",
          "ranking": null,
          "ranking_date": null,
          "fts_code": 67731
        }
      ]
    },
    {
      "name": "Aftershocks Roller Rebels",
      "country": "United States of America",
      "city": "Marysville",
      "lat": 48.0517,
      "long": -122.177,
      "region": "USA",
      "logo": "aftershocks_roller_rebels.jpg",
      "teams": [
        {
          "name": "All-stars",
          "ranking": null,
          "ranking_date": null,
          "fts_code": 87423
        }
      ]
    },
    {
      "name": "Air Raid Roller Girls",
      "country": "United States of America",
      "city": "Hillsborough",
      "lat": 43.1141,
      "long": -71.8992,
      "region": "USA",
      "logo": "air_raid_roller_girls.jpg",
      "teams": [
        {
          "name": "All-stars",
          "ranking": null,
          "ranking_date": null,
          "fts_code": 51234
        }
      ]
    },
    {
      "name": "Akron Roller Derby",
      "country": "United States of America",
      "city": "Akron",
      "lat": 41.083,
      "long": -81.5185,
      "region": "USA",
      "logo": "akron_roller_derby.jpg",
      "teams": [
        {
          "name": "ARD: AK Rowdy Rollers",
          "ranking": null,
          "ranking_date": null,
          "fts_code": 94470
        },
        {
          "name": "ARD: Audio Assault",
          "ranking": null,
          "ranking_date": null,
          "fts_code": 7384
        },
        {
          "name": "All Stars",
          "ranking": null,
          "ranking_date": null,
          "fts_code": 3636
        }
      ]
    },
    {
      "name": "Alamo City Rollergirls",
      "country": "United States of America",
      "city": "San Antonio",
      "lat": 29.4246,
      "long": -98.4952,
      "region": "USA",
      "logo": "alamo_city_rollergirls.jpg",
      "teams": [
        {
          "name": "ACRG: Las Pistoleras",
          "ranking": null,
          "ranking_date": null,
          "fts_code": 14261
        },
        {
          "name": "Las Tejanas",
          "ranking": null,
          "ranking_date": null,
          "fts_code": 3422
        }
      ]
    },
    {
      "name": "Alamogordo Derbal Remedy",
      "country": "United States of America",
      "city": "Alamogordo",
      "lat": 32.8997,
      "long": -105.96,
      "region": "USA",
      "logo": "alamogordo_derbal_remedy.jpg",
      "teams": [
        {
          "name": "All-stars",
          "ranking": null,
          "ranking_date": null,
          "fts_code": 34445
        }
      ]
    },
    {
      "name": "Albany All Stars Roller Derby",
      "country": "United States of America",
      "city": "Albany",
      "lat": 43.9578,
      "long": -71.1676,
      "region": "USA",
      "logo": "albany_all_stars_roller_derby.jpg",
      "teams": [
        {
          "name": "AASRD: Brawl Stars",
          "ranking": null,
          "ranking_date": null,
          "fts_code": 13640
        },
        {
          "name": "All-stars",
          "ranking": null,
          "ranking_date": null,
          "fts_code": 9248
        }
      ]
    },
    {
      "name": "Albuquerque Roller Derby (Womens)",
      "country": "United States of America",
      "city": "Albuquerque",
      "lat": 35.0841,
      "long": -106.651,
      "region": "USA",
      "logo": "albuquerque_roller_derby_(womens).jpg",
      "teams": [
        {
          "name": "ABQRD(W): B Team",
          "ranking": null,
          "ranking_date": null,
          "fts_code": 108072
        },
        {
          "name": "All-stars",
          "ranking": null,
          "ranking_date": null,
          "fts_code": 61086
        }
      ]
    },
    {
      "name": "All City Rollers",
      "country": "United States of America",
      "city": "Lake City",
      "lat": 42.0142,
      "long": -80.3454,
      "region": "USA",
      "logo": "all_city_rollers.jpg",
      "teams": [
        {
          "name": "Hunnies",
          "ranking": null,
          "ranking_date": null,
          "fts_code": 9084
        }
      ]
    },
    {
      "name": "Aloha City Rollers",
      "country": "United States of America",
      "city": "Kapolei",
      "lat": 21.334,
      "long": -158.077,
      "region": "USA",
      "logo": "aloha_city_rollers.jpg",
      "teams": [
        {
          "name": "All-stars",
          "ranking": null,
          "ranking_date": null,
          "fts_code": 25547
        }
      ]
    },
    {
      "name": "American Revolution Roller Derby",
      "country": "United States of America",
      "city": "Virginia Beach",
      "lat": 36.8529,
      "long": -75.9775,
      "region": "USA",
      "logo": "american_revolution_roller_derby.jpg",
      "teams": [
        {
          "name": "All-stars",
          "ranking": null,
          "ranking_date": null,
          "fts_code": 79393
        }
      ]
    },
    {
      "name": "Ames Roller Derby Association",
      "country": "United States of America",
      "city": "Amesbury",
      "lat": 42.8579,
      "long": -70.9301,
      "region": "USA",
      "logo": "ames_roller_derby_association.jpg",
      "teams": [
        {
          "name": "Skunk River Riot",
          "ranking": null,
          "ranking_date": null,
          "fts_code": 60314
        }
      ]
    },
    {
      "name": "Androscoggin Fallen Angels",
      "country": "United States of America",
      "city": "Lewiston",
      "lat": 44.1003,
      "long": -70.2148,
      "region": "USA",
      "logo": "androscoggin_fallen_angels.jpg",
      "teams": [
        {
          "name": "The Inferno",
          "ranking": null,
          "ranking_date": null,
          "fts_code": 99689
        }
      ]
    },
    {
      "name": "Angel City Derby",
      "country": "United States of America",
      "city": "Los Angeles",
      "lat": 34.0536,
      "long": -118.243,
      "region": "USA",
      "logo": "angel_city_derby.jpg",
      "teams": [
        {
          "name": "Rising Stars",
          "ranking": null,
          "ranking_date": null,
          "fts_code": 19971
        },
        {
          "name": "ACD: Shore Shots",
          "ranking": null,
          "ranking_date": null,
          "fts_code": 24145
        },
        {
          "name": "ACD: Road Ragers",
          "ranking": null,
          "ranking_date": null,
          "fts_code": 27116
        },
        {
          "name": "ACD: Rocket Queens",
          "ranking": null,
          "ranking_date": null,
          "fts_code": 9553
        },
        {
          "name": "Hollywood Scarlets",
          "ranking": null,
          "ranking_date": null,
          "fts_code": 3420
        }
      ]
    },
    {
      "name": "Animas Roller Girls",
      "country": "United States of America",
      "city": "Farmington",
      "lat": 44.671,
      "long": -70.1519,
      "region": "USA",
      "logo": "animas_roller_girls.jpg",
      "teams": [
        {
          "name": "All-stars",
          "ranking": null,
          "ranking_date": null,
          "fts_code": 25833
        }
      ]
    },
    {
      "name": "Ann Arbor Roller Derby",
      "country": "United States of America",
      "city": "Ann Arbor",
      "lat": 42.2681,
      "long": -83.7313,
      "region": "USA",
      "logo": "ann_arbor_roller_derby.jpg",
      "teams": [
        {
          "name": "AARD: Ypsilanti Vigilantes",
          "ranking": null,
          "ranking_date": null,
          "fts_code": 32836
        },
        {
          "name": "AARD: Arbor Bruising Co.",
          "ranking": null,
          "ranking_date": null,
          "fts_code": 32962
        },
        {
          "name": "Brawlstars",
          "ranking": null,
          "ranking_date": null,
          "fts_code": 13529
        }
      ]
    },
    {
      "name": "Antagonist Roller Derby",
      "country": "United States of America",
      "city": "Seattle",
      "lat": 47.6038,
      "long": -122.33,
      "region": "USA",
      "logo": "antagonist_roller_derby.jpg",
      "teams": [
        {
          "name": "All-stars",
          "ranking": null,
          "ranking_date": null,
          "fts_code": 37806
        }
      ]
    },
    {
      "name": "Antihero Derby Alliance",
      "country": "United States of America",
      "city": "Manassas Park",
      "lat": 38.784,
      "long": -77.4698,
      "region": "USA",
      "logo": "antihero_derby_alliance.jpg",
      "teams": [
        {
          "name": "All-stars",
          "ranking": null,
          "ranking_date": null,
          "fts_code": 14967
        }
      ]
    },
    {
      "name": "Appalachian Iron Maidens",
      "country": "United States of America",
      "city": "Ironton",
      "lat": 45.2561,
      "long": -85.1868,
      "region": "USA",
      "logo": "appalachian_iron_maidens.jpg",
      "teams": [
        {
          "name": "All-stars",
          "ranking": null,
          "ranking_date": null,
          "fts_code": 76600
        }
      ]
    },
    {
      "name": "Appalachian Roller Derby",
      "country": "United States of America",
      "city": "Banner Elk",
      "lat": 36.1631,
      "long": -81.8716,
      "region": "USA",
      "logo": "appalachian_roller_derby.jpg",
      "teams": [
        {
          "name": "ARD: Boone Shiners",
          "ranking": null,
          "ranking_date": null,
          "fts_code": 69310
        },
        {
          "name": "All-stars",
          "ranking": null,
          "ranking_date": null,
          "fts_code": 7876
        }
      ]
    },
    {
      "name": "Apple City Roller Derby",
      "country": "United States of America",
      "city": "Wenatchee",
      "lat": 47.4234,
      "long": -120.31,
      "region": "USA",
      "logo": "apple_city_roller_derby.jpg",
      "teams": [
        {
          "name": "All-stars",
          "ranking": null,
          "ranking_date": null,
          "fts_code": 18707
        }
      ]
    },
    {
      "name": "Arch Rival Roller Derby",
      "country": "United States of America",
      "city": "St Louis",
      "lat": 38.6272,
      "long": -90.1979,
      "region": "USA",
      "logo": "arch_rival_roller_derby.jpg",
      "teams": [
        {
          "name": "ARCH: Arch Nemesis",
          "ranking": null,
          "ranking_date": null,
          "fts_code": 6634
        },
        {
          "name": "ARCH: Fleur-de-Linquents",
          "ranking": null,
          "ranking_date": null,
          "fts_code": 27774
        },
        {
          "name": "All-stars",
          "ranking": null,
          "ranking_date": null,
          "fts_code": 3433
        }
      ]
    },
    {
      "name": "Arizona Derby Dames",
      "country": "United States of America",
      "city": "Phoenix",
      "lat": 33.4485,
      "long": -112.077,
      "region": "USA",
      "logo": "arizona_derby_dames.jpg",
      "teams": [
        {
          "name": "AZDD: The Coffin Draggers",
          "ranking": null,
          "ranking_date": null,
          "fts_code": 71580
        },
        {
          "name": "AZDD: The Brutal Beauties",
          "ranking": null,
          "ranking_date": null,
          "fts_code": 71579
        },
        {
          "name": "AZDD: The Bombshells",
          "ranking": null,
          "ranking_date": null,
          "fts_code": 71578
        },
        {
          "name": "AZDD: The Runaway Brides",
          "ranking": null,
          "ranking_date": null,
          "fts_code": 71577
        },
        {
          "name": "AZDD: Schoolyard Scrappers",
          "ranking": null,
          "ranking_date": null,
          "fts_code": 71576
        },
        {
          "name": "All-stars",
          "ranking": null,
          "ranking_date": null,
          "fts_code": 71575
        }
      ]
    },
    {
      "name": "Arizona Roller Derby",
      "country": "United States of America",
      "city": "Phoenix",
      "lat": 33.4485,
      "long": -112.077,
      "region": "USA",
      "logo": "arizona_roller_derby.jpg",
      "teams": [
        {
          "name": "Tent City Travelers",
          "ranking": null,
          "ranking_date": null,
          "fts_code": 73782
        },
        {
          "name": "AZRD: Midnight Storm",
          "ranking": null,
          "ranking_date": null,
          "fts_code": 107352
        },
        {
          "name": "AZRD: Valley Rollers",
          "ranking": null,
          "ranking_date": null,
          "fts_code": 24509
        },
        {
          "name": "AZRD: Desert Phantoms",
          "ranking": null,
          "ranking_date": null,
          "fts_code": 8874
        },
        {
          "name": "AZRD: Surly Gurlies",
          "ranking": null,
          "ranking_date": null,
          "fts_code": 8715
        },
        {
          "name": "AZRD: Bad News Beaters",
          "ranking": null,
          "ranking_date": null,
          "fts_code": 9386
        },
        {
          "name": "AZRD: Skate Riot Project",
          "ranking": null,
          "ranking_date": null,
          "fts_code": 69434
        },
        {
          "name": "AZRD: Rumbleweeds",
          "ranking": null,
          "ranking_date": null,
          "fts_code": 88983
        },
        {
          "name": "AZRD: Arizona Rising",
          "ranking": null,
          "ranking_date": null,
          "fts_code": 83299
        },
        {
          "name": "Arizona Roller Derby Allstars",
          "ranking": null,
          "ranking_date": null,
          "fts_code": 3399
        }
      ]
    },
    {
      "name": "Arizona Rollergirls",
      "country": "United States of America",
      "city": "Mesa",
      "lat": 33.4153,
      "long": -111.831,
      "region": "USA",
      "logo": "arizona_rollergirls.jpg",
      "teams": [
        {
          "name": "All-Stars",
          "ranking": null,
          "ranking_date": null,
          "fts_code": 9066
        }
      ]
    },
    {
      "name": "Ark Valley High Rollers",
      "country": "United States of America",
      "city": "Salida",
      "lat": 38.5347,
      "long": -105.999,
      "region": "USA",
      "logo": "ark_valley_high_rollers.jpg",
      "teams": [
        {
          "name": "All Stars",
          "ranking": null,
          "ranking_date": null,
          "fts_code": 6737
        }
      ]
    },
    {
      "name": "Arlington Derby Avengers",
      "country": "United States of America",
      "city": "Dallas",
      "lat": 32.7831,
      "long": -96.8067,
      "region": "USA",
      "logo": "arlington_derby_avengers.jpg",
      "teams": [
        {
          "name": "All-stars",
          "ranking": null,
          "ranking_date": null,
          "fts_code": 106970
        }
      ]
    },
    {
      "name": "Aroostook Roller Derby",
      "country": "United States of America",
      "city": "Hamlin",
      "lat": 47.0658,
      "long": -67.794,
      "region": "USA",
      "logo": "aroostook_roller_derby.jpg",
      "teams": [
        {
          "name": "ARD: B-Team",
          "ranking": null,
          "ranking_date": null,
          "fts_code": 97841
        },
        {
          "name": "BiohazARDs",
          "ranking": null,
          "ranking_date": null,
          "fts_code": 56512
        }
      ]
    },
    {
      "name": "Assassination City Roller Derby",
      "country": "United States of America",
      "city": "Dallas",
      "lat": 32.7762,
      "long": -96.7969,
      "region": "USA",
      "logo": "assassination_city_roller_derby.jpg",
      "teams": [
        {
          "name": "ACD: Co Conspirators",
          "ranking": null,
          "ranking_date": null,
          "fts_code": 15854
        },
        {
          "name": "Conspiracy",
          "ranking": null,
          "ranking_date": null,
          "fts_code": 3424
        }
      ]
    },
    {
      "name": "Assault City Roller Derby",
      "country": "United States of America",
      "city": "Syracuse",
      "lat": 43.0481,
      "long": -76.1475,
      "region": "USA",
      "logo": "assault_city_roller_derby.jpg",
      "teams": [
        {
          "name": "SRR: B Squad",
          "ranking": null,
          "ranking_date": null,
          "fts_code": 8725
        },
        {
          "name": "A Squad",
          "ranking": null,
          "ranking_date": null,
          "fts_code": 8118
        }
      ]
    },
    {
      "name": "Athens Ohio Roller Derby",
      "country": "United States of America",
      "city": "Athens",
      "lat": 33.9597,
      "long": -83.3764,
      "region": "USA",
      "logo": "athens_ohio_roller_derby.jpg",
      "teams": [
        {
          "name": "AORD: Black Diamond Betties",
          "ranking": null,
          "ranking_date": null,
          "fts_code": 97610
        },
        {
          "name": "Appalachian Hell Betties",
          "ranking": null,
          "ranking_date": null,
          "fts_code": 19128
        }
      ]
    },
    {
      "name": "Atlanta Roller Derby",
      "country": "United States of America",
      "city": "Atlanta",
      "lat": 33.749,
      "long": -84.3902,
      "region": "USA",
      "logo": "atlanta_roller_derby.jpg",
      "teams": [
        {
          "name": "ATLRD: Glamma Rays",
          "ranking": null,
          "ranking_date": null,
          "fts_code": 9652
        },
        {
          "name": "ATLRD: Toxic Shocks",
          "ranking": null,
          "ranking_date": null,
          "fts_code": 9429
        },
        {
          "name": "ATLRD: Denim Demons",
          "ranking": null,
          "ranking_date": null,
          "fts_code": 9428
        },
        {
          "name": "ATLRD: Apocalypstix",
          "ranking": null,
          "ranking_date": null,
          "fts_code": 9536
        },
        {
          "name": "ATLRD: Jukes of Hazzard",
          "ranking": null,
          "ranking_date": null,
          "fts_code": 10309
        },
        {
          "name": "ATLRD: Rumble Bs",
          "ranking": null,
          "ranking_date": null,
          "fts_code": 6858
        },
        {
          "name": "Dirty South Derby",
          "ranking": null,
          "ranking_date": null,
          "fts_code": 3418
        }
      ]
    },
    {
      "name": "Atlantic Coast Roller Girls",
      "country": "United States of America",
      "city": "Sewall's Point",
      "lat": 27.1994,
      "long": -80.2023,
      "region": "USA",
      "logo": "atlantic_coast_roller_girls.jpg",
      "teams": [
        {
          "name": "Hurricane Janes",
          "ranking": null,
          "ranking_date": null,
          "fts_code": 30904
        }
      ]
    },
    {
      "name": "Atomic City Rollergirls",
      "country": "United States of America",
      "city": "Kennewick",
      "lat": 46.2083,
      "long": -119.12,
      "region": "USA",
      "logo": "atomic_city_rollergirls.jpg",
      "teams": [
        {
          "name": "All-stars",
          "ranking": null,
          "ranking_date": null,
          "fts_code": 18372
        }
      ]
    },
    {
      "name": "Atomic Rollergirls",
      "country": "United States of America",
      "city": "Las Vegas",
      "lat": 36.1674,
      "long": -115.149,
      "region": "USA",
      "logo": "atomic_rollergirls.jpg",
      "teams": [
        {
          "name": "All-stars",
          "ranking": null,
          "ranking_date": null,
          "fts_code": 104630
        }
      ]
    },
    {
      "name": "Auburn Gold Diggers Roller Derby",
      "country": "United States of America",
      "city": "Auburn",
      "lat": 44.0978,
      "long": -70.2312,
      "region": "USA",
      "logo": "auburn_gold_diggers_roller_derby.jpg",
      "teams": [
        {
          "name": "All-stars",
          "ranking": null,
          "ranking_date": null,
          "fts_code": 25834
        }
      ]
    },
    {
      "name": "Aurora 88s Roller Derby",
      "country": "United States of America",
      "city": "Aurora",
      "lat": 41.7571,
      "long": -88.3148,
      "region": "USA",
      "logo": "aurora_88s_roller_derby.jpg",
      "teams": [
        {
          "name": "Original Sin",
          "ranking": null,
          "ranking_date": null,
          "fts_code": 15073
        }
      ]
    },
    {
      "name": "Babe City Rollers",
      "country": "United States of America",
      "city": "Bemidji",
      "lat": 47.4786,
      "long": -94.8909,
      "region": "USA",
      "logo": "babe_city_rollers.jpg",
      "teams": [
        {
          "name": "All Stars",
          "ranking": null,
          "ranking_date": null,
          "fts_code": 4737
        }
      ]
    },
    {
      "name": "Back Alley Skates",
      "country": "United States of America",
      "city": "Manchester",
      "lat": 42.9956,
      "long": -71.4548,
      "region": "USA",
      "logo": "back_alley_skates.jpg",
      "teams": [
        {
          "name": "All-stars",
          "ranking": null,
          "ranking_date": null,
          "fts_code": 48425
        }
      ]
    },
    {
      "name": "Back Woods Roller Derby",
      "country": "United States of America",
      "city": "Tioga",
      "lat": 48.3972,
      "long": -102.938,
      "region": "USA",
      "logo": "back_woods_roller_derby.jpg",
      "teams": [
        {
          "name": "Dirt Road Dears",
          "ranking": null,
          "ranking_date": null,
          "fts_code": 64195
        }
      ]
    },
    {
      "name": "Badfish Roller Derby",
      "country": "United States of America",
      "city": "Long Beach",
      "lat": 33.7669,
      "long": -118.189,
      "region": "USA",
      "logo": "badfish_roller_derby.jpg",
      "teams": [
        {
          "name": "All-stars",
          "ranking": null,
          "ranking_date": null,
          "fts_code": 93292
        }
      ]
    },
    {
      "name": "Bakersfield Diamond Divas",
      "country": "United States of America",
      "city": "Bakersfield",
      "lat": 35.3738,
      "long": -119.019,
      "region": "USA",
      "logo": "bakersfield_diamond_divas.jpg",
      "teams": [
        {
          "name": "BDD: Diamond Roughcuts",
          "ranking": null,
          "ranking_date": null,
          "fts_code": 12608
        },
        {
          "name": "Diamond Divas",
          "ranking": null,
          "ranking_date": null,
          "fts_code": 12607
        }
      ]
    },
    {
      "name": "Bakersfield Rollergirls",
      "country": "United States of America",
      "city": "Bakersfield",
      "lat": 35.3738,
      "long": -119.019,
      "region": "USA",
      "logo": "bakersfield_rollergirls.jpg",
      "teams": [
        {
          "name": "All-stars",
          "ranking": null,
          "ranking_date": null,
          "fts_code": 28520
        }
      ]
    },
    {
      "name": "Bakken Derby Girls League",
      "country": "United States of America",
      "city": "Williston",
      "lat": 44.4374,
      "long": -73.069,
      "region": "USA",
      "logo": "bakken_derby_girls_league.jpg",
      "teams": [
        {
          "name": "Williston Wreckhers",
          "ranking": null,
          "ranking_date": null,
          "fts_code": 25870
        }
      ]
    },
    {
      "name": "Balsam Mountain Roller Girls",
      "country": "United States of America",
      "city": "Waynesville",
      "lat": 39.5297,
      "long": -84.0867,
      "region": "USA",
      "logo": "balsam_mountain_roller_girls.jpg",
      "teams": [
        {
          "name": "All-stars",
          "ranking": null,
          "ranking_date": null,
          "fts_code": 18588
        }
      ]
    },
    {
      "name": "Bangor Roller Derby",
      "country": "United States of America",
      "city": "Bangor",
      "lat": 44.8011,
      "long": -68.7779,
      "region": "USA",
      "logo": "bangor_roller_derby.jpg",
      "teams": [
        {
          "name": "BRD: Bangor Roller Derby B-Team",
          "ranking": null,
          "ranking_date": null,
          "fts_code": 60784
        },
        {
          "name": "All-stars",
          "ranking": null,
          "ranking_date": null,
          "fts_code": 26170
        }
      ]
    },
    {
      "name": "Barbed Wire Betties",
      "country": "United States of America",
      "city": "DeKalb",
      "lat": 41.9294,
      "long": -88.7504,
      "region": "USA",
      "logo": "barbed_wire_betties.jpg",
      "teams": [
        {
          "name": "All-stars",
          "ranking": null,
          "ranking_date": null,
          "fts_code": 59140
        }
      ]
    },
    {
      "name": "Bash Valley Clobber Girls",
      "country": "United States of America",
      "city": "Terre Haute",
      "lat": 39.4667,
      "long": -87.414,
      "region": "USA",
      "logo": "bash_valley_clobber_girls.jpg",
      "teams": [
        {
          "name": "All-stars",
          "ranking": null,
          "ranking_date": null,
          "fts_code": 16920
        }
      ]
    },
    {
      "name": "Basin Bombers Roller Derby",
      "country": "United States of America",
      "city": "Klamath Falls",
      "lat": 42.2248,
      "long": -121.782,
      "region": "USA",
      "logo": "basin_bombers_roller_derby.jpg",
      "teams": [
        {
          "name": "Basin Bombers",
          "ranking": null,
          "ranking_date": null,
          "fts_code": 59917
        }
      ]
    },
    {
      "name": "Bath City Roller Girls",
      "country": "United States of America",
      "city": "Shelby Charter Township",
      "lat": 42.6714,
      "long": -83.035,
      "region": "USA",
      "logo": "bath_city_roller_girls.jpg",
      "teams": [
        {
          "name": "BCRG: Bathtub Betties",
          "ranking": null,
          "ranking_date": null,
          "fts_code": 59619
        },
        {
          "name": "Devil Duckies",
          "ranking": null,
          "ranking_date": null,
          "fts_code": 24956
        }
      ]
    },
    {
      "name": "Battle Creek Cereal Killers",
      "country": "United States of America",
      "city": "Battle Creek",
      "lat": 42.3192,
      "long": -85.1825,
      "region": "USA",
      "logo": "battle_creek_cereal_killers.jpg",
      "teams": [
        {
          "name": "Cereal Killers",
          "ranking": null,
          "ranking_date": null,
          "fts_code": 18437
        }
      ]
    },
    {
      "name": "Battlefield Roller Derby",
      "country": "United States of America",
      "city": "Manassas Park",
      "lat": 38.784,
      "long": -77.4698,
      "region": "USA",
      "logo": "battlefield_roller_derby.jpg",
      "teams": [
        {
          "name": "Capital Punishment",
          "ranking": null,
          "ranking_date": null,
          "fts_code": 80553
        }
      ]
    },
    {
      "name": "Bay Area Derby",
      "country": "United States of America",
      "city": "Oakland",
      "lat": 37.8044,
      "long": -122.271,
      "region": "USA",
      "logo": "bay_area_derby.jpg",
      "teams": [
        {
          "name": "BADGirls n Friends",
          "ranking": null,
          "ranking_date": null,
          "fts_code": 20889
        },
        {
          "name": "BAD: Berkeley Resistance",
          "ranking": null,
          "ranking_date": null,
          "fts_code": 7598
        },
        {
          "name": "BAD: San Francisco ShEvil Dead",
          "ranking": null,
          "ranking_date": null,
          "fts_code": 7599
        },
        {
          "name": "BAD: Oakland Outlaws",
          "ranking": null,
          "ranking_date": null,
          "fts_code": 7597
        },
        {
          "name": "BAD All-Stars",
          "ranking": null,
          "ranking_date": null,
          "fts_code": 3404
        }
      ]
    },
    {
      "name": "Bay Area Star Stompers Roller Derby",
      "country": "United States of America",
      "city": "Coos Bay",
      "lat": 43.3665,
      "long": -124.218,
      "region": "USA",
      "logo": "bay_area_star_stompers_roller_derby.jpg",
      "teams": [
        {
          "name": "All-stars",
          "ranking": null,
          "ranking_date": null,
          "fts_code": 62637
        }
      ]
    },
    {
      "name": "Bay State Brawlers",
      "country": "United States of America",
      "city": "Lancaster",
      "lat": 34.6981,
      "long": -118.137,
      "region": "USA",
      "logo": "bay_state_brawlers.jpg",
      "teams": [
        {
          "name": "BSB: Brawlin' Broads",
          "ranking": null,
          "ranking_date": null,
          "fts_code": 14681
        },
        {
          "name": "Petticoat Punishers",
          "ranking": null,
          "ranking_date": null,
          "fts_code": 14228
        }
      ]
    },
    {
      "name": "Bayou Outlaw Rollergirls",
      "country": "United States of America",
      "city": "Orange",
      "lat": 33.7872,
      "long": -117.85,
      "region": "USA",
      "logo": "bayou_outlaw_rollergirls.jpg",
      "teams": [
        {
          "name": "Bayou Outlaws",
          "ranking": null,
          "ranking_date": null,
          "fts_code": 8601
        }
      ]
    },
    {
      "name": "Beach Cities Roller Derby",
      "country": "United States of America",
      "city": "Redondo Beach",
      "lat": 33.8455,
      "long": -118.389,
      "region": "USA",
      "logo": "beach_cities_roller_derby.jpg",
      "teams": [
        {
          "name": "BCRD: Sea Vixens",
          "ranking": null,
          "ranking_date": null,
          "fts_code": 58148
        },
        {
          "name": "Riptide Rollers",
          "ranking": null,
          "ranking_date": null,
          "fts_code": 30504
        }
      ]
    },
    {
      "name": "Beet City Bombers",
      "country": "United States of America",
      "city": "Nampa",
      "lat": 43.5737,
      "long": -116.56,
      "region": "USA",
      "logo": "beet_city_bombers.jpg",
      "teams": [
        {
          "name": "BCB: Flygirls",
          "ranking": null,
          "ranking_date": null,
          "fts_code": 108826
        },
        {
          "name": "All-stars",
          "ranking": null,
          "ranking_date": null,
          "fts_code": 35838
        }
      ]
    },
    {
      "name": "Belles N Bombshells",
      "country": "United States of America",
      "city": "Montgomery",
      "lat": 32.3669,
      "long": -86.3007,
      "region": "USA",
      "logo": "belles_n_bombshells.jpg",
      "teams": [
        {
          "name": "All-stars",
          "ranking": null,
          "ranking_date": null,
          "fts_code": 9076
        }
      ]
    },
    {
      "name": "Bellingham Roller Betties",
      "country": "United States of America",
      "city": "Bellingham",
      "lat": 42.0869,
      "long": -71.4747,
      "region": "USA",
      "logo": "bellingham_roller_betties.jpg",
      "teams": [
        {
          "name": "BRB: FLASH",
          "ranking": null,
          "ranking_date": null,
          "fts_code": 23769
        },
        {
          "name": "BRB: Tough Love",
          "ranking": null,
          "ranking_date": null,
          "fts_code": 23770
        },
        {
          "name": "BRB: Cog Blockers",
          "ranking": null,
          "ranking_date": null,
          "fts_code": 23771
        },
        {
          "name": "Blunt Force Trauma",
          "ranking": null,
          "ranking_date": null,
          "fts_code": 3464
        }
      ]
    },
    {
      "name": "Beloit Bombshells",
      "country": "United States of America",
      "city": "Beloit",
      "lat": 40.9231,
      "long": -80.9938,
      "region": "USA",
      "logo": "beloit_bombshells.jpg",
      "teams": [
        {
          "name": "Team Nice",
          "ranking": null,
          "ranking_date": null,
          "fts_code": 41594
        },
        {
          "name": "Team Naughty",
          "ranking": null,
          "ranking_date": null,
          "fts_code": 41593
        },
        {
          "name": "Bombshells",
          "ranking": null,
          "ranking_date": null,
          "fts_code": 15326
        }
      ]
    },
    {
      "name": "Benton County Roller Derby (Women's)",
      "country": "United States of America",
      "city": "Springdale",
      "lat": 39.9026,
      "long": -74.9663,
      "region": "USA",
      "logo": "benton_county_roller_derby_(women's).jpg",
      "teams": [
        {
          "name": "Derby Dames",
          "ranking": null,
          "ranking_date": null,
          "fts_code": 25873
        }
      ]
    },
    {
      "name": "Bethel Roller Derby",
      "country": "United States of America",
      "city": "Bethel",
      "lat": 44.4043,
      "long": -70.7911,
      "region": "USA",
      "logo": "bethel_roller_derby.jpg",
      "teams": [
        {
          "name": "All-stars",
          "ranking": null,
          "ranking_date": null,
          "fts_code": 25875
        }
      ]
    },
    {
      "name": "Bexar County Roller Girls",
      "country": "United States of America",
      "city": "San Antonio",
      "lat": 29.4246,
      "long": -98.4952,
      "region": "USA",
      "logo": "bexar_county_roller_girls.jpg",
      "teams": [
        {
          "name": "Outlaw Dames",
          "ranking": null,
          "ranking_date": null,
          "fts_code": 25876
        }
      ]
    },
    {
      "name": "Big D Rollergirls",
      "country": "United States of America",
      "city": "Dallas",
      "lat": 32.7831,
      "long": -96.8067,
      "region": "USA",
      "logo": "big_d_rollergirls.jpg",
      "teams": [
        {
          "name": "All-stars",
          "ranking": null,
          "ranking_date": null,
          "fts_code": 106029
        }
      ]
    },
    {
      "name": "Big Easy Rollergirls",
      "country": "United States of America",
      "city": "New Orleans",
      "lat": 29.9499,
      "long": -90.0702,
      "region": "USA",
      "logo": "big_easy_rollergirls.jpg",
      "teams": [
        {
          "name": "BERG: Second Line",
          "ranking": null,
          "ranking_date": null,
          "fts_code": 8001
        },
        {
          "name": "AllStars",
          "ranking": null,
          "ranking_date": null,
          "fts_code": 3397
        }
      ]
    },
    {
      "name": "Big Horn Banshees",
      "country": "United States of America",
      "city": "Powellville",
      "lat": 38.3287,
      "long": -75.3755,
      "region": "USA",
      "logo": "big_horn_banshees.jpg",
      "teams": [
        {
          "name": "All-stars",
          "ranking": null,
          "ranking_date": null,
          "fts_code": 37185
        }
      ]
    },
    {
      "name": "Big Sky All Stars",
      "country": "United States of America",
      "city": "Montana",
      "lat": 44.3413,
      "long": -91.6649,
      "region": "USA",
      "logo": "big_sky_all_stars.jpg",
      "teams": [
        {
          "name": "All Stars",
          "ranking": null,
          "ranking_date": null,
          "fts_code": 79950
        }
      ]
    },
    {
      "name": "Billings Roller Derby Dames",
      "country": "United States of America",
      "city": "Billings Metropolitan Area",
      "lat": 45.7874,
      "long": -108.496,
      "region": "USA",
      "logo": "billings_roller_derby_dames.jpg",
      "teams": [
        {
          "name": "BRDD: Billings Bteam",
          "ranking": null,
          "ranking_date": null,
          "fts_code": 79048
        },
        {
          "name": "All-stars",
          "ranking": null,
          "ranking_date": null,
          "fts_code": 21374
        }
      ]
    },
    {
      "name": "Biloxi Roller Derby",
      "country": "United States of America",
      "city": "Biloxi",
      "lat": 30.396,
      "long": -88.8854,
      "region": "USA",
      "logo": "biloxi_roller_derby.jpg",
      "teams": [
        {
          "name": "All-stars",
          "ranking": null,
          "ranking_date": null,
          "fts_code": 10411
        }
      ]
    },
    {
      "name": "Birmingham Roller Derby",
      "country": "United States of America",
      "city": "Birmingham",
      "lat": 33.5206,
      "long": -86.8025,
      "region": "USA",
      "logo": "birmingham_roller_derby.jpg",
      "teams": [
        {
          "name": "All-stars",
          "ranking": null,
          "ranking_date": null,
          "fts_code": 23322
        }
      ]
    },
    {
      "name": "BisMan Roller Derby (Women's)",
      "country": "United States of America",
      "city": "Bismarck",
      "lat": 40.2639,
      "long": -87.6081,
      "region": "USA",
      "logo": "bisman_roller_derby_(women's).jpg",
      "teams": [
        {
          "name": "BisMan Bombshellz",
          "ranking": null,
          "ranking_date": null,
          "fts_code": 20023
        }
      ]
    },
    {
      "name": "Black Diamond Rollers",
      "country": "United States of America",
      "city": "Elmira Heights",
      "lat": 42.1297,
      "long": -76.8208,
      "region": "USA",
      "logo": "black_diamond_rollers.jpg",
      "teams": [
        {
          "name": "Dolls of Destruction",
          "ranking": null,
          "ranking_date": null,
          "fts_code": 17350
        }
      ]
    },
    {
      "name": "Black Heart Maidens",
      "country": "United States of America",
      "city": "Hastings",
      "lat": 43.3739,
      "long": -76.1525,
      "region": "USA",
      "logo": "black_heart_maidens.jpg",
      "teams": [
        {
          "name": "Black Heart Maidens",
          "ranking": null,
          "ranking_date": null,
          "fts_code": 15321
        }
      ]
    },
    {
      "name": "Black Hills Aces N Sk8s",
      "country": "United States of America",
      "city": "Leadington",
      "lat": 37.8403,
      "long": -90.4918,
      "region": "USA",
      "logo": "black_hills_aces_n_sk8s.jpg",
      "teams": [
        {
          "name": "All-stars",
          "ranking": null,
          "ranking_date": null,
          "fts_code": 20085
        }
      ]
    },
    {
      "name": "Black Hills Roller Derby League",
      "country": "United States of America",
      "city": "Sioux Falls",
      "lat": 43.5499,
      "long": -96.7004,
      "region": "USA",
      "logo": "black_hills_roller_derby_league.jpg",
      "teams": [
        {
          "name": "All-stars",
          "ranking": null,
          "ranking_date": null,
          "fts_code": 32306
        }
      ]
    },
    {
      "name": "Black Hills Wildfire Roller Derby",
      "country": "United States of America",
      "city": "Rapid City",
      "lat": 44.8344,
      "long": -85.2826,
      "region": "USA",
      "logo": "black_hills_wildfire_roller_derby.jpg",
      "teams": [
        {
          "name": "All Stars",
          "ranking": null,
          "ranking_date": null,
          "fts_code": 31820
        }
      ]
    },
    {
      "name": "Black River Roller Derby",
      "country": "United States of America",
      "city": "Watertown",
      "lat": 42.3709,
      "long": -71.1829,
      "region": "USA",
      "logo": "black_river_roller_derby.jpg",
      "teams": [
        {
          "name": "All-stars",
          "ranking": null,
          "ranking_date": null,
          "fts_code": 13410
        }
      ]
    },
    {
      "name": "Black Rose Rollers",
      "country": "United States of America",
      "city": "Hanover",
      "lat": 44.4969,
      "long": -70.6943,
      "region": "USA",
      "logo": "black_rose_rollers.jpg",
      "teams": [
        {
          "name": "Grime & Punishment",
          "ranking": null,
          "ranking_date": null,
          "fts_code": 77937
        },
        {
          "name": "BRR: Riveters",
          "ranking": null,
          "ranking_date": null,
          "fts_code": 15481
        },
        {
          "name": "All-Stars",
          "ranking": null,
          "ranking_date": null,
          "fts_code": 8143
        }
      ]
    },
    {
      "name": "Black Widows Derby Ghouls",
      "country": "United States of America",
      "city": "Tinley Park",
      "lat": 41.5733,
      "long": -87.7845,
      "region": "USA",
      "logo": "black_widows_derby_ghouls.jpg",
      "teams": [
        {
          "name": "all-stars",
          "ranking": null,
          "ranking_date": null,
          "fts_code": 28989
        }
      ]
    },
    {
      "name": "Black-n-Bluegrass RollerGirls",
      "country": "United States of America",
      "city": "Latonia Lakes",
      "lat": 38.9675,
      "long": -84.4978,
      "region": "USA",
      "logo": "black-n-bluegrass_rollergirls.jpg",
      "teams": [
        {
          "name": "All Stars",
          "ranking": null,
          "ranking_date": null,
          "fts_code": 7521
        }
      ]
    },
    {
      "name": "Blacksnake Roller Girls",
      "country": "United States of America",
      "city": "Saint Joseph",
      "lat": 42.1095,
      "long": -86.48,
      "region": "USA",
      "logo": "blacksnake_roller_girls.jpg",
      "teams": [
        {
          "name": "All-stars",
          "ranking": null,
          "ranking_date": null,
          "fts_code": 25878
        }
      ]
    },
    {
      "name": "Blackwater Rollers",
      "country": "United States of America",
      "city": "Lynchburg",
      "lat": 37.4137,
      "long": -79.1423,
      "region": "USA",
      "logo": "blackwater_rollers.jpg",
      "teams": [
        {
          "name": "All-stars",
          "ranking": null,
          "ranking_date": null,
          "fts_code": 9224
        }
      ]
    },
    {
      "name": "Blazin' Banditas Rollerderby",
      "country": "United States of America",
      "city": "San Antonio",
      "lat": 29.4246,
      "long": -98.4952,
      "region": "USA",
      "logo": "blazin'_banditas_rollerderby.jpg",
      "teams": [
        {
          "name": "All-stars",
          "ranking": null,
          "ranking_date": null,
          "fts_code": 9144
        }
      ]
    },
    {
      "name": "Bleeding Heartland Roller Derby",
      "country": "United States of America",
      "city": "Bloomington",
      "lat": 39.48,
      "long": -79.0712,
      "region": "USA",
      "logo": "bleeding_heartland_roller_derby.jpg",
      "teams": [
        {
          "name": "Heart Attacks",
          "ranking": null,
          "ranking_date": null,
          "fts_code": 24811
        },
        {
          "name": "BHRD: Code Blue Assassins",
          "ranking": null,
          "ranking_date": null,
          "fts_code": 7385
        },
        {
          "name": "Flatliners",
          "ranking": null,
          "ranking_date": null,
          "fts_code": 3455
        }
      ]
    },
    {
      "name": "Blue Ridge Rollergirls",
      "country": "United States of America",
      "city": "Asheville",
      "lat": 35.6009,
      "long": -82.5541,
      "region": "USA",
      "logo": "blue_ridge_rollergirls.jpg",
      "teams": [
        {
          "name": "BRR: French Broads",
          "ranking": null,
          "ranking_date": null,
          "fts_code": 10956
        },
        {
          "name": "All-stars",
          "ranking": null,
          "ranking_date": null,
          "fts_code": 8059
        }
      ]
    },
    {
      "name": "Blue Stone Roller Derby",
      "country": "United States of America",
      "city": "Harrisonburg",
      "lat": 38.4493,
      "long": -78.8689,
      "region": "USA",
      "logo": "blue_stone_roller_derby.jpg",
      "teams": [
        {
          "name": "All-stars",
          "ranking": null,
          "ranking_date": null,
          "fts_code": 30379
        }
      ]
    },
    {
      "name": "Blue Water Roller Derby",
      "country": "United States of America",
      "city": "Port Huron",
      "lat": 42.9815,
      "long": -82.4405,
      "region": "USA",
      "logo": "blue_water_roller_derby.jpg",
      "teams": [
        {
          "name": "Blue Water Roller Girls",
          "ranking": null,
          "ranking_date": null,
          "fts_code": 10381
        }
      ]
    },
    {
      "name": "Bomb City Roller Girls",
      "country": "United States of America",
      "city": "McAlester",
      "lat": 34.9334,
      "long": -95.7698,
      "region": "USA",
      "logo": "bomb_city_roller_girls.jpg",
      "teams": [
        {
          "name": "All-stars",
          "ranking": null,
          "ranking_date": null,
          "fts_code": 55453
        }
      ]
    },
    {
      "name": "Bone City Rollers",
      "country": "United States of America",
      "city": "Warsaw",
      "lat": 42.7401,
      "long": -78.1326,
      "region": "USA",
      "logo": "bone_city_rollers.jpg",
      "teams": [
        {
          "name": "All-stars",
          "ranking": null,
          "ranking_date": null,
          "fts_code": 49912
        }
      ]
    },
    {
      "name": "Bordercity Rollergirls",
      "country": "United States of America",
      "city": "Yuma",
      "lat": 40.1222,
      "long": -102.725,
      "region": "USA",
      "logo": "bordercity_rollergirls.jpg",
      "teams": [
        {
          "name": "All-stars",
          "ranking": null,
          "ranking_date": null,
          "fts_code": 25879
        }
      ]
    },
    {
      "name": "Boston Roller Derby",
      "country": "United States of America",
      "city": "Boston",
      "lat": 42.3602,
      "long": -71.0583,
      "region": "USA",
      "logo": "boston_roller_derby.jpg",
      "teams": [
        {
          "name": "BRD: Harbor Horrors",
          "ranking": null,
          "ranking_date": null,
          "fts_code": 33931
        },
        {
          "name": "BRD: Nutcrackers",
          "ranking": null,
          "ranking_date": null,
          "fts_code": 13342
        },
        {
          "name": "BRD: Wicked Pissahs",
          "ranking": null,
          "ranking_date": null,
          "fts_code": 13344
        },
        {
          "name": "BRD: Cosmonaughties",
          "ranking": null,
          "ranking_date": null,
          "fts_code": 8898
        },
        {
          "name": "BRD: Boston Common",
          "ranking": null,
          "ranking_date": null,
          "fts_code": 41362
        },
        {
          "name": "BRD: Boston B Party",
          "ranking": null,
          "ranking_date": null,
          "fts_code": 10188
        },
        {
          "name": "Boston Massacre",
          "ranking": null,
          "ranking_date": null,
          "fts_code": 3402
        }
      ]
    },
    {
      "name": "Boulder County Bombers",
      "country": "United States of America",
      "city": "Boulder Junction",
      "lat": 46.1132,
      "long": -89.6446,
      "region": "USA",
      "logo": "boulder_county_bombers.jpg",
      "teams": [
        {
          "name": "BCB: Screaming Mimis",
          "ranking": null,
          "ranking_date": null,
          "fts_code": 102159
        },
        {
          "name": "BCB: Bombshells",
          "ranking": null,
          "ranking_date": null,
          "fts_code": 23442
        },
        {
          "name": "All-Stars",
          "ranking": null,
          "ranking_date": null,
          "fts_code": 16730
        }
      ]
    },
    {
      "name": "Bradentucky Bombers",
      "country": "United States of America",
      "city": "Bradenton",
      "lat": 27.4989,
      "long": -82.5749,
      "region": "USA",
      "logo": "bradentucky_bombers.jpg",
      "teams": [
        {
          "name": "BB: Nuclear Bombshells",
          "ranking": null,
          "ranking_date": null,
          "fts_code": 20925
        },
        {
          "name": "Bomb Squad",
          "ranking": null,
          "ranking_date": null,
          "fts_code": 7865
        }
      ]
    },
    {
      "name": "Brandywine Roller Derby",
      "country": "United States of America",
      "city": "Downingtown",
      "lat": 40.0064,
      "long": -75.7033,
      "region": "USA",
      "logo": "brandywine_roller_derby.jpg",
      "teams": [
        {
          "name": "BRD: Brawlers",
          "ranking": null,
          "ranking_date": null,
          "fts_code": 13411
        },
        {
          "name": "The Belligerents",
          "ranking": null,
          "ranking_date": null,
          "fts_code": 11127
        }
      ]
    },
    {
      "name": "Delavan Dolls of Derby",
      "country": "United States of America",
      "city": "Delavan",
      "lat": 42.633,
      "long": -88.6438,
      "region": "USA",
      "logo": "delavan_dolls_of_derby.jpg",
      "teams": [
        {
          "name": "Delavan Dolls",
          "ranking": null,
          "ranking_date": null,
          "fts_code": 8600
        }
      ]
    },
    {
      "name": "Brazos Valley Roller Derby",
      "country": "United States of America",
      "city": "Bryantown",
      "lat": 38.5551,
      "long": -76.842,
      "region": "USA",
      "logo": "brazos_valley_roller_derby.jpg",
      "teams": [
        {
          "name": "All-stars",
          "ranking": null,
          "ranking_date": null,
          "fts_code": 24845
        }
      ]
    },
    {
      "name": "Brevard County Derby Girls",
      "country": "United States of America",
      "city": "Titusville",
      "lat": 28.6122,
      "long": -80.8076,
      "region": "USA",
      "logo": "brevard_county_derby_girls.jpg",
      "teams": [
        {
          "name": "Space Coast Slashers",
          "ranking": null,
          "ranking_date": null,
          "fts_code": 8909
        }
      ]
    },
    {
      "name": "Brewcity Bruisers",
      "country": "United States of America",
      "city": "Milwaukee",
      "lat": 43.0349,
      "long": -87.9225,
      "region": "USA",
      "logo": "brewcity_bruisers.jpg",
      "teams": [
        {
          "name": "BCB: Battlestars",
          "ranking": null,
          "ranking_date": null,
          "fts_code": 7381
        },
        {
          "name": "All Stars",
          "ranking": null,
          "ranking_date": null,
          "fts_code": 3419
        }
      ]
    },
    {
      "name": "Brighton Roller Dollz",
      "country": "United States of America",
      "city": "Brighton",
      "lat": 45.0453,
      "long": -69.6948,
      "region": "USA",
      "logo": "brighton_roller_dollz.jpg",
      "teams": [
        {
          "name": "All-stars",
          "ranking": null,
          "ranking_date": null,
          "fts_code": 25103
        }
      ]
    },
    {
      "name": "Broome County Rollers",
      "country": "United States of America",
      "city": "Binghamton",
      "lat": 42.0969,
      "long": -75.9144,
      "region": "USA",
      "logo": "broome_county_rollers.jpg",
      "teams": [
        {
          "name": "Parlor City Tricks",
          "ranking": null,
          "ranking_date": null,
          "fts_code": 13404
        }
      ]
    },
    {
      "name": "Brown County Derby Debu'taunts",
      "country": "United States of America",
      "city": "Brownwood",
      "lat": 31.7093,
      "long": -98.9912,
      "region": "USA",
      "logo": "brown_county_derby_debu'taunts.jpg",
      "teams": [
        {
          "name": "Debu'taunts",
          "ranking": null,
          "ranking_date": null,
          "fts_code": 18390
        }
      ]
    },
    {
      "name": "Buff City Brawlers",
      "country": "United States of America",
      "city": "Jamestown",
      "lat": 41.497,
      "long": -71.3673,
      "region": "USA",
      "logo": "buff_city_brawlers.jpg",
      "teams": [
        {
          "name": "All-stars",
          "ranking": null,
          "ranking_date": null,
          "fts_code": 25880
        }
      ]
    },
    {
      "name": "Bull Falls Roller Dolls",
      "country": "United States of America",
      "city": "Wausaukee",
      "lat": 45.3708,
      "long": -87.9524,
      "region": "USA",
      "logo": "bull_falls_roller_dolls.jpg",
      "teams": [
        {
          "name": "All-stars",
          "ranking": null,
          "ranking_date": null,
          "fts_code": 24756
        }
      ]
    },
    {
      "name": "Burn City Rollers",
      "country": "United States of America",
      "city": "Auburn",
      "lat": 44.0978,
      "long": -70.2312,
      "region": "USA",
      "logo": "burn_city_rollers.jpg",
      "teams": [
        {
          "name": "All-stars",
          "ranking": null,
          "ranking_date": null,
          "fts_code": 9077
        }
      ]
    },
    {
      "name": "Burning River Roller Derby",
      "country": "United States of America",
      "city": "Cleveland",
      "lat": 41.5051,
      "long": -81.6935,
      "region": "USA",
      "logo": "burning_river_roller_derby.jpg",
      "teams": [
        {
          "name": "BRRD: Pyromaniacs",
          "ranking": null,
          "ranking_date": null,
          "fts_code": 12312
        },
        {
          "name": "BRRD: Hazmat Crew",
          "ranking": null,
          "ranking_date": null,
          "fts_code": 11590
        },
        {
          "name": "All-stars",
          "ranking": null,
          "ranking_date": null,
          "fts_code": 3437
        }
      ]
    },
    {
      "name": "Bux-Mont Roller Derby Dolls",
      "country": "United States of America",
      "city": "Hatfield",
      "lat": 42.3709,
      "long": -72.5967,
      "region": "USA",
      "logo": "bux-mont_roller_derby_dolls.jpg",
      "teams": [
        {
          "name": "BMRD: Nockavixons",
          "ranking": null,
          "ranking_date": null,
          "fts_code": 101110
        },
        {
          "name": "BMRD: Perkiomen Punishers",
          "ranking": null,
          "ranking_date": null,
          "fts_code": 101109
        },
        {
          "name": "Sirens",
          "ranking": null,
          "ranking_date": null,
          "fts_code": 53582
        }
      ]
    },
    {
      "name": "C.C. Maiden Texas Roller Derby",
      "country": "United States of America",
      "city": "Corpus Christi",
      "lat": 27.8002,
      "long": -97.3956,
      "region": "USA",
      "logo": "c.c._maiden_texas_roller_derby.jpg",
      "teams": [
        {
          "name": "All-stars",
          "ranking": null,
          "ranking_date": null,
          "fts_code": 25497
        }
      ]
    },
    {
      "name": "Cajun Rollergirls",
      "country": "United States of America",
      "city": "Houma",
      "lat": 29.5957,
      "long": -90.7196,
      "region": "USA",
      "logo": "cajun_rollergirls.jpg",
      "teams": [
        {
          "name": "All-stars",
          "ranking": null,
          "ranking_date": null,
          "fts_code": 7928
        }
      ]
    },
    {
      "name": "Cal Skate Roller Derby",
      "country": "United States of America",
      "city": "Santa Maria",
      "lat": 34.9531,
      "long": -120.436,
      "region": "USA",
      "logo": "cal_skate_roller_derby.jpg",
      "teams": [
        {
          "name": "CSRD: Delta Dolls",
          "ranking": null,
          "ranking_date": null,
          "fts_code": 53717
        },
        {
          "name": "Alpha Pack",
          "ranking": null,
          "ranking_date": null,
          "fts_code": 21119
        }
      ]
    },
    {
      "name": "Camel City Thrashers",
      "country": "United States of America",
      "city": "Greensboro",
      "lat": 36.0726,
      "long": -79.792,
      "region": "USA",
      "logo": "camel_city_thrashers.jpg",
      "teams": [
        {
          "name": "All-stars",
          "ranking": null,
          "ranking_date": null,
          "fts_code": 9664
        }
      ]
    },
    {
      "name": "Cape Cod Roller Derby",
      "country": "United States of America",
      "city": "Hyannis",
      "lat": 41.6515,
      "long": -70.2826,
      "region": "USA",
      "logo": "cape_cod_roller_derby.jpg",
      "teams": [
        {
          "name": "Salty Dolls",
          "ranking": null,
          "ranking_date": null,
          "fts_code": 66262
        }
      ]
    },
    {
      "name": "Cape Fear Roller Girls",
      "country": "United States of America",
      "city": "Wilmington",
      "lat": 42.5464,
      "long": -71.1737,
      "region": "USA",
      "logo": "cape_fear_roller_girls.jpg",
      "teams": [
        {
          "name": "CFRG: Black Harrts",
          "ranking": null,
          "ranking_date": null,
          "fts_code": 12598
        },
        {
          "name": "All Stars",
          "ranking": null,
          "ranking_date": null,
          "fts_code": 4740
        }
      ]
    },
    {
      "name": "Cape Girardeau Roller Derby",
      "country": "United States of America",
      "city": "Cape Girardeau",
      "lat": 37.3058,
      "long": -89.5182,
      "region": "USA",
      "logo": "cape_girardeau_roller_derby.jpg",
      "teams": [
        {
          "name": "All Stars",
          "ranking": null,
          "ranking_date": null,
          "fts_code": 15019
        }
      ]
    },
    {
      "name": "Capital City Crushers",
      "country": "United States of America",
      "city": "Topeka",
      "lat": 39.049,
      "long": -95.6776,
      "region": "USA",
      "logo": "capital_city_crushers.jpg",
      "teams": [
        {
          "name": "CCC: T-Town Beatdown",
          "ranking": null,
          "ranking_date": null,
          "fts_code": 107877
        },
        {
          "name": "All-stars",
          "ranking": null,
          "ranking_date": null,
          "fts_code": 11444
        }
      ]
    },
    {
      "name": "Capital City Roller Girls",
      "country": "United States of America",
      "city": "Jacksonville",
      "lat": 30.3321,
      "long": -81.6557,
      "region": "USA",
      "logo": "capital_city_roller_girls.jpg",
      "teams": [
        {
          "name": "CCRG: Steal Magnolias",
          "ranking": null,
          "ranking_date": null,
          "fts_code": 102574
        },
        {
          "name": "8 Wheeled Mafia",
          "ranking": null,
          "ranking_date": null,
          "fts_code": 32442
        }
      ]
    },
    {
      "name": "Capital City Rollin' Rebels",
      "country": "United States of America",
      "city": "Montgomery",
      "lat": 32.3669,
      "long": -86.3007,
      "region": "USA",
      "logo": "capital_city_rollin'_rebels.jpg",
      "teams": [
        {
          "name": "All-stars",
          "ranking": null,
          "ranking_date": null,
          "fts_code": 32623
        }
      ]
    },
    {
      "name": "Carolina Rollergirls",
      "country": "United States of America",
      "city": "Raleigh",
      "lat": 35.7803,
      "long": -78.6391,
      "region": "USA",
      "logo": "carolina_rollergirls.jpg",
      "teams": [
        {
          "name": "CRG: Carolina Bootleggers",
          "ranking": null,
          "ranking_date": null,
          "fts_code": 7855
        },
        {
          "name": "All-stars",
          "ranking": null,
          "ranking_date": null,
          "fts_code": 3414
        }
      ]
    },
    {
      "name": "Carson Victory Rollers",
      "country": "United States of America",
      "city": "Carson City",
      "lat": 39.1638,
      "long": -119.767,
      "region": "USA",
      "logo": "carson_victory_rollers.jpg",
      "teams": [
        {
          "name": "All-stars",
          "ranking": null,
          "ranking_date": null,
          "fts_code": 28065
        }
      ]
    },
    {
      "name": "Casper's Deadly Ghosts",
      "country": "United States of America",
      "city": "Casper",
      "lat": 42.8666,
      "long": -106.313,
      "region": "USA",
      "logo": "casper's_deadly_ghosts.jpg",
      "teams": [
        {
          "name": "All-stars",
          "ranking": null,
          "ranking_date": null,
          "fts_code": 30998
        }
      ]
    },
    {
      "name": "Castle Rock 'n' Rollers",
      "country": "United States of America",
      "city": "Castle Rock",
      "lat": 43.0474,
      "long": -90.5316,
      "region": "USA",
      "logo": "castle_rock_'n'_rollers.jpg",
      "teams": [
        {
          "name": "All-stars",
          "ranking": null,
          "ranking_date": null,
          "fts_code": 4742
        }
      ]
    },
    {
      "name": "Catawba Valley Roller Girls",
      "country": "United States of America",
      "city": "Morganton",
      "lat": 35.7454,
      "long": -81.6871,
      "region": "USA",
      "logo": "catawba_valley_roller_girls.jpg",
      "teams": [
        {
          "name": "All-stars",
          "ranking": null,
          "ranking_date": null,
          "fts_code": 25004
        }
      ]
    },
    {
      "name": "Cedar Rapids Outlaws",
      "country": "United States of America",
      "city": "Cedar Rapids",
      "lat": 41.9758,
      "long": -91.6705,
      "region": "USA",
      "logo": "cedar_rapids_outlaws.jpg",
      "teams": [
        {
          "name": "Outlaws",
          "ranking": null,
          "ranking_date": null,
          "fts_code": 106993
        }
      ]
    },
    {
      "name": "Cedar Rapids Rollergirls",
      "country": "United States of America",
      "city": "Cedar Rapids",
      "lat": 41.9758,
      "long": -91.6705,
      "region": "USA",
      "logo": "cedar_rapids_rollergirls.jpg",
      "teams": [
        {
          "name": "Five Season Femme Fatales",
          "ranking": null,
          "ranking_date": null,
          "fts_code": 8142
        }
      ]
    },
    {
      "name": "Cedar Valley Roller Derby",
      "country": "United States of America",
      "city": "Waterloo",
      "lat": 42.9047,
      "long": -76.8628,
      "region": "USA",
      "logo": "cedar_valley_roller_derby.jpg",
      "teams": [
        {
          "name": "Push-Up Brawlers",
          "ranking": null,
          "ranking_date": null,
          "fts_code": 16731
        }
      ]
    },
    {
      "name": "Cen-Tex Roller Girls",
      "country": "United States of America",
      "city": "Temple",
      "lat": 44.685,
      "long": -70.2265,
      "region": "USA",
      "logo": "cen-tex_roller_girls.jpg",
      "teams": [
        {
          "name": "H.O.T. All Stars",
          "ranking": null,
          "ranking_date": null,
          "fts_code": 8141
        }
      ]
    },
    {
      "name": "Cenla Derby Dames",
      "country": "United States of America",
      "city": "Alexandria",
      "lat": 38.8051,
      "long": -77.0471,
      "region": "USA",
      "logo": "cenla_derby_dames.jpg",
      "teams": [
        {
          "name": "All-stars",
          "ranking": null,
          "ranking_date": null,
          "fts_code": 8665
        }
      ]
    },
    {
      "name": "Central California Area Derby",
      "country": "United States of America",
      "city": "Fresno",
      "lat": 36.7394,
      "long": -119.785,
      "region": "USA",
      "logo": "central_california_area_derby.jpg",
      "teams": [
        {
          "name": "Central California Area Derby",
          "ranking": null,
          "ranking_date": null,
          "fts_code": 8087
        }
      ]
    },
    {
      "name": "Central Coast Roller Derby",
      "country": "United States of America",
      "city": "Paso Robles",
      "lat": 35.6267,
      "long": -120.691,
      "region": "USA",
      "logo": "central_coast_roller_derby.jpg",
      "teams": [
        {
          "name": "CCRD: Micro Bruisers",
          "ranking": null,
          "ranking_date": null,
          "fts_code": 20251
        },
        {
          "name": "SK805",
          "ranking": null,
          "ranking_date": null,
          "fts_code": 3463
        }
      ]
    },
    {
      "name": "Central Jersey Roller Vixens",
      "country": "United States of America",
      "city": "Aberdeen",
      "lat": 40.4071,
      "long": -74.2217,
      "region": "USA",
      "logo": "central_jersey_roller_vixens.jpg",
      "teams": [
        {
          "name": "All-stars",
          "ranking": null,
          "ranking_date": null,
          "fts_code": 14872
        }
      ]
    },
    {
      "name": "Central Kansas Roller Derby",
      "country": "United States of America",
      "city": "Hutchinson",
      "lat": 40.7737,
      "long": -75.1313,
      "region": "USA",
      "logo": "central_kansas_roller_derby.jpg",
      "teams": [
        {
          "name": "All-stars",
          "ranking": null,
          "ranking_date": null,
          "fts_code": 38234
        }
      ]
    },
    {
      "name": "Central Maine Derby",
      "country": "United States of America",
      "city": "Bangor",
      "lat": 44.8011,
      "long": -68.7779,
      "region": "USA",
      "logo": "central_maine_derby.jpg",
      "teams": [
        {
          "name": "Northwoods Knockouts",
          "ranking": null,
          "ranking_date": null,
          "fts_code": 25871
        }
      ]
    },
    {
      "name": "Central Michigan Roller Derby",
      "country": "United States of America",
      "city": "Mt Pleasant",
      "lat": 35.3993,
      "long": -80.4359,
      "region": "USA",
      "logo": "central_michigan_roller_derby.jpg",
      "teams": [
        {
          "name": "Mountain Town Mayhem",
          "ranking": null,
          "ranking_date": null,
          "fts_code": 12618
        }
      ]
    },
    {
      "name": "Central NY Roller Derby",
      "country": "United States of America",
      "city": "Utica",
      "lat": 43.1009,
      "long": -75.2327,
      "region": "USA",
      "logo": "central_ny_roller_derby.jpg",
      "teams": [
        {
          "name": "CNYRD: CNY Daybreakers",
          "ranking": null,
          "ranking_date": null,
          "fts_code": 10988
        },
        {
          "name": "CNY Nightmares",
          "ranking": null,
          "ranking_date": null,
          "fts_code": 3642
        }
      ]
    },
    {
      "name": "Central Ohio Roller Derby",
      "country": "United States of America",
      "city": "Mount Vernon",
      "lat": 44.5009,
      "long": -69.9878,
      "region": "USA",
      "logo": "central_ohio_roller_derby.jpg",
      "teams": [
        {
          "name": "CORD: Stardust",
          "ranking": null,
          "ranking_date": null,
          "fts_code": 49020
        },
        {
          "name": "All-stars",
          "ranking": null,
          "ranking_date": null,
          "fts_code": 19129
        }
      ]
    },
    {
      "name": "Central Oklahoma Roller Derby Association",
      "country": "United States of America",
      "city": "Stillwater",
      "lat": 42.9384,
      "long": -73.6532,
      "region": "USA",
      "logo": "central_oklahoma_roller_derby_association.jpg",
      "teams": [
        {
          "name": "Angels of No Mercy",
          "ranking": null,
          "ranking_date": null,
          "fts_code": 8608
        }
      ]
    },
    {
      "name": "Central Vermont Roller Derby",
      "country": "United States of America",
      "city": "Barre",
      "lat": 44.1974,
      "long": -72.5023,
      "region": "USA",
      "logo": "central_vermont_roller_derby.jpg",
      "teams": [
        {
          "name": "Twin City Riot",
          "ranking": null,
          "ranking_date": null,
          "fts_code": 7826
        }
      ]
    },
    {
      "name": "Charlotte Roller Derby",
      "country": "United States of America",
      "city": "Charlotte",
      "lat": 35.227,
      "long": -80.8432,
      "region": "USA",
      "logo": "charlotte_roller_derby.jpg",
      "teams": [
        {
          "name": "CLTRD: B-Dazzlers",
          "ranking": null,
          "ranking_date": null,
          "fts_code": 7990
        },
        {
          "name": "All-Stars",
          "ranking": null,
          "ranking_date": null,
          "fts_code": 4744
        }
      ]
    },
    {
      "name": "Charlottesville Derby Dames",
      "country": "United States of America",
      "city": "Charlottesville",
      "lat": 38.0293,
      "long": -78.4767,
      "region": "USA",
      "logo": "charlottesville_derby_dames.jpg",
      "teams": [
        {
          "name": "CDD: Belmont Bruisers",
          "ranking": null,
          "ranking_date": null,
          "fts_code": 27512
        },
        {
          "name": "All-stars",
          "ranking": null,
          "ranking_date": null,
          "fts_code": 8140
        }
      ]
    },
    {
      "name": "Charm City Roller Derby",
      "country": "United States of America",
      "city": "Baltimore",
      "lat": 39.2908,
      "long": -76.6108,
      "region": "USA",
      "logo": "charm_city_roller_derby.jpg",
      "teams": [
        {
          "name": "CCRD: Trouble Makers",
          "ranking": null,
          "ranking_date": null,
          "fts_code": 45370
        },
        {
          "name": "CCRD: Female Trouble",
          "ranking": null,
          "ranking_date": null,
          "fts_code": 9218
        },
        {
          "name": "All-stars",
          "ranking": null,
          "ranking_date": null,
          "fts_code": 3395
        }
      ]
    },
    {
      "name": "Chattanooga Roller Girls",
      "country": "United States of America",
      "city": "Chattanooga",
      "lat": 35.0456,
      "long": -85.3097,
      "region": "USA",
      "logo": "chattanooga_roller_girls.jpg",
      "teams": [
        {
          "name": "CHAT: B Railers",
          "ranking": null,
          "ranking_date": null,
          "fts_code": 13952
        },
        {
          "name": "All-stars",
          "ranking": null,
          "ranking_date": null,
          "fts_code": 7870
        }
      ]
    },
    {
      "name": "Chautauqua County Roller Derby",
      "country": "United States of America",
      "city": "Jamestown",
      "lat": 41.497,
      "long": -71.3673,
      "region": "USA",
      "logo": "chautauqua_county_roller_derby.jpg",
      "teams": [
        {
          "name": "Babes of Wrath",
          "ranking": null,
          "ranking_date": null,
          "fts_code": 8736
        }
      ]
    },
    {
      "name": "Chemical City Derby Girls",
      "country": "United States of America",
      "city": "Midland",
      "lat": 31.9973,
      "long": -102.078,
      "region": "USA",
      "logo": "chemical_city_derby_girls.jpg",
      "teams": [
        {
          "name": "All-stars",
          "ranking": null,
          "ranking_date": null,
          "fts_code": 25202
        }
      ]
    },
    {
      "name": "Chemical Valley Rollergirls",
      "country": "United States of America",
      "city": "Charleston",
      "lat": 32.7876,
      "long": -79.9403,
      "region": "USA",
      "logo": "chemical_valley_rollergirls.jpg",
      "teams": [
        {
          "name": "CVRG: Jewel City Rollergirls",
          "ranking": null,
          "ranking_date": null,
          "fts_code": 27446
        },
        {
          "name": "All-stars",
          "ranking": null,
          "ranking_date": null,
          "fts_code": 10187
        }
      ]
    },
    {
      "name": "Cherry City Roller Derby",
      "country": "United States of America",
      "city": "Salem",
      "lat": 44.9391,
      "long": -123.033,
      "region": "USA",
      "logo": "cherry_city_roller_derby.jpg",
      "teams": [
        {
          "name": "CCRD: Capital Punishers",
          "ranking": null,
          "ranking_date": null,
          "fts_code": 82341
        },
        {
          "name": "CCRD: Boneyard Brawlers",
          "ranking": null,
          "ranking_date": null,
          "fts_code": 24102
        },
        {
          "name": "8 Wheel Assassins",
          "ranking": null,
          "ranking_date": null,
          "fts_code": 8052
        }
      ]
    },
    {
      "name": "Chesapeake Roller Derby",
      "country": "United States of America",
      "city": "Baltimore",
      "lat": 39.2908,
      "long": -76.6108,
      "region": "USA",
      "logo": "chesapeake_roller_derby.jpg",
      "teams": [
        {
          "name": "All-stars",
          "ranking": null,
          "ranking_date": null,
          "fts_code": 24407
        }
      ]
    },
    {
      "name": "Cheyenne Roller Derby",
      "country": "United States of America",
      "city": "Cheyenne",
      "lat": 41.14,
      "long": -104.82,
      "region": "USA",
      "logo": "cheyenne_roller_derby.jpg",
      "teams": [
        {
          "name": "Capidoll Stars",
          "ranking": null,
          "ranking_date": null,
          "fts_code": 8139
        }
      ]
    },
    {
      "name": "Chicago Red Hots",
      "country": "United States of America",
      "city": "Chicago",
      "lat": 41.8755,
      "long": -87.6245,
      "region": "USA",
      "logo": "chicago_red_hots.jpg",
      "teams": [
        {
          "name": "All-stars",
          "ranking": null,
          "ranking_date": null,
          "fts_code": 24618
        }
      ]
    },
    {
      "name": "Chippewa Valley Roller Derby",
      "country": "United States of America",
      "city": "Eau Claire",
      "lat": 41.1361,
      "long": -79.7982,
      "region": "USA",
      "logo": "chippewa_valley_roller_derby.jpg",
      "teams": [
        {
          "name": "CVRD: B Team",
          "ranking": null,
          "ranking_date": null,
          "fts_code": 108102
        },
        {
          "name": "All-stars",
          "ranking": null,
          "ranking_date": null,
          "fts_code": 13834
        }
      ]
    },
    {
      "name": "Chocolate City Cherry Bombers",
      "country": "United States of America",
      "city": "Burlington",
      "lat": 45.2092,
      "long": -68.4267,
      "region": "USA",
      "logo": "chocolate_city_cherry_bombers.jpg",
      "teams": [
        {
          "name": "All-stars",
          "ranking": null,
          "ranking_date": null,
          "fts_code": 10125
        }
      ]
    },
    {
      "name": "Choice City Rebels",
      "country": "United States of America",
      "city": "Fort Collins",
      "lat": 40.5508,
      "long": -105.067,
      "region": "USA",
      "logo": "choice_city_rebels.jpg",
      "teams": [
        {
          "name": "All-stars",
          "ranking": null,
          "ranking_date": null,
          "fts_code": 4293
        }
      ]
    },
    {
      "name": "Cincinnati Rollergirls",
      "country": "United States of America",
      "city": "Cincinnati",
      "lat": 39.1014,
      "long": -84.5125,
      "region": "USA",
      "logo": "cincinnati_rollergirls.jpg",
      "teams": [
        {
          "name": "CINC: Union Terminators",
          "ranking": null,
          "ranking_date": null,
          "fts_code": 97070
        },
        {
          "name": "CINC: Helltown Hellions",
          "ranking": null,
          "ranking_date": null,
          "fts_code": 97069
        },
        {
          "name": "CINC: Flock Ewes",
          "ranking": null,
          "ranking_date": null,
          "fts_code": 9070
        },
        {
          "name": "CINC: Violent Lambs",
          "ranking": null,
          "ranking_date": null,
          "fts_code": 6635
        },
        {
          "name": "Black Sheep",
          "ranking": null,
          "ranking_date": null,
          "fts_code": 3427
        }
      ]
    },
    {
      "name": "Circle City Derby Girls",
      "country": "United States of America",
      "city": "Indianapolis",
      "lat": 39.7683,
      "long": -86.1584,
      "region": "USA",
      "logo": "circle_city_derby_girls.jpg",
      "teams": [
        {
          "name": "CCDG: Party Crashers",
          "ranking": null,
          "ranking_date": null,
          "fts_code": 7382
        },
        {
          "name": "Socialites",
          "ranking": null,
          "ranking_date": null,
          "fts_code": 7511
        }
      ]
    },
    {
      "name": "Cirque Du Pain",
      "country": "United States of America",
      "city": "Florence",
      "lat": 34.1984,
      "long": -79.7672,
      "region": "USA",
      "logo": "cirque_du_pain.jpg",
      "teams": [
        {
          "name": "All-stars",
          "ranking": null,
          "ranking_date": null,
          "fts_code": 13037
        }
      ]
    },
    {
      "name": "ClarksVillain RollerGirls",
      "country": "United States of America",
      "city": "Clarksville",
      "lat": 36.5277,
      "long": -87.3589,
      "region": "USA",
      "logo": "clarksvillain_rollergirls.jpg",
      "teams": [
        {
          "name": "All-stars",
          "ranking": null,
          "ranking_date": null,
          "fts_code": 33266
        }
      ]
    },
    {
      "name": "Clarksville Roller Derby",
      "country": "United States of America",
      "city": "Clarksville",
      "lat": 36.5277,
      "long": -87.3589,
      "region": "USA",
      "logo": "clarksville_roller_derby.jpg",
      "teams": [
        {
          "name": "Clarksville Roller Derby",
          "ranking": null,
          "ranking_date": null,
          "fts_code": 7872
        }
      ]
    },
    {
      "name": "Classic City Rollergirls",
      "country": "United States of America",
      "city": "Athens",
      "lat": 33.9597,
      "long": -83.3764,
      "region": "USA",
      "logo": "classic_city_rollergirls.jpg",
      "teams": [
        {
          "name": "CCRG: Black",
          "ranking": null,
          "ranking_date": null,
          "fts_code": 59504
        },
        {
          "name": "CCRG: Green",
          "ranking": null,
          "ranking_date": null,
          "fts_code": 59503
        },
        {
          "name": "CCRG: Bad News Bs",
          "ranking": null,
          "ranking_date": null,
          "fts_code": 10357
        },
        {
          "name": "All-stars",
          "ranking": null,
          "ranking_date": null,
          "fts_code": 7813
        }
      ]
    },
    {
      "name": "Clovis Roller Derby",
      "country": "United States of America",
      "city": "Clovis",
      "lat": 34.4054,
      "long": -103.205,
      "region": "USA",
      "logo": "clovis_roller_derby.jpg",
      "teams": [
        {
          "name": "Dirty Curry Prairie Dollz",
          "ranking": null,
          "ranking_date": null,
          "fts_code": 29678
        }
      ]
    },
    {
      "name": "Clutch City Roller Derby",
      "country": "United States of America",
      "city": "Houston",
      "lat": 29.7589,
      "long": -95.3677,
      "region": "USA",
      "logo": "clutch_city_roller_derby.jpg",
      "teams": [
        {
          "name": "All-stars",
          "ranking": null,
          "ranking_date": null,
          "fts_code": 24846
        }
      ]
    },
    {
      "name": "Coachella Valley Derby Girls",
      "country": "United States of America",
      "city": "Palm Desert",
      "lat": 33.7288,
      "long": -116.383,
      "region": "USA",
      "logo": "coachella_valley_derby_girls.jpg",
      "teams": [
        {
          "name": "All-stars",
          "ranking": null,
          "ranking_date": null,
          "fts_code": 36769
        }
      ]
    },
    {
      "name": "Coal City Rollers",
      "country": "United States of America",
      "city": "Wilkes-Barre",
      "lat": 41.2464,
      "long": -75.8818,
      "region": "USA",
      "logo": "coal_city_rollers.jpg",
      "teams": [
        {
          "name": "All-stars",
          "ranking": null,
          "ranking_date": null,
          "fts_code": 8880
        }
      ]
    },
    {
      "name": "Coastal Derby Empire",
      "country": "United States of America",
      "city": "Savannah",
      "lat": 32.0809,
      "long": -81.0912,
      "region": "USA",
      "logo": "coastal_derby_empire.jpg",
      "teams": [
        {
          "name": "All-stars",
          "ranking": null,
          "ranking_date": null,
          "fts_code": 28040
        }
      ]
    },
    {
      "name": "Coeur dAlene Roller Derby",
      "country": "United States of America",
      "city": "Coeur d'Alene",
      "lat": 47.6742,
      "long": -116.781,
      "region": "USA",
      "logo": "coeur_dalene_roller_derby.jpg",
      "teams": [
        {
          "name": "All Stars",
          "ranking": null,
          "ranking_date": null,
          "fts_code": 18705
        }
      ]
    },
    {
      "name": "Coffin County Slaughter Kittens",
      "country": "United States of America",
      "city": "Kelso",
      "lat": 37.1906,
      "long": -89.5496,
      "region": "USA",
      "logo": "coffin_county_slaughter_kittens.jpg",
      "teams": [
        {
          "name": "All-stars",
          "ranking": null,
          "ranking_date": null,
          "fts_code": 25355
        }
      ]
    },
    {
      "name": "Colorado Academy of Hard Knocks",
      "country": "United States of America",
      "city": "Colorado Springs",
      "lat": 38.8339,
      "long": -104.825,
      "region": "USA",
      "logo": "colorado_academy_of_hard_knocks.jpg",
      "teams": [
        {
          "name": "All-stars",
          "ranking": null,
          "ranking_date": null,
          "fts_code": 27530
        }
      ]
    },
    {
      "name": "Colorado Roller Derby",
      "country": "United States of America",
      "city": "Denver",
      "lat": 39.7391,
      "long": -104.985,
      "region": "USA",
      "logo": "colorado_roller_derby.jpg",
      "teams": [
        {
          "name": "Rollin' Bones",
          "ranking": null,
          "ranking_date": null,
          "fts_code": 24737
        }
      ]
    },
    {
      "name": "Columbia Basin Roller Derby",
      "country": "United States of America",
      "city": "Moses Lake North",
      "lat": 47.1943,
      "long": -119.317,
      "region": "USA",
      "logo": "columbia_basin_roller_derby.jpg",
      "teams": [
        {
          "name": "All-stars",
          "ranking": null,
          "ranking_date": null,
          "fts_code": 48421
        }
      ]
    },
    {
      "name": "Columbia Roller Derby",
      "country": "United States of America",
      "city": "Columbia",
      "lat": 39.2156,
      "long": -76.8583,
      "region": "USA",
      "logo": "columbia_roller_derby.jpg",
      "teams": [
        {
          "name": "CRD: Soda City Jerks",
          "ranking": null,
          "ranking_date": null,
          "fts_code": 11224
        },
        {
          "name": "QuadSquad",
          "ranking": null,
          "ranking_date": null,
          "fts_code": 7696
        }
      ]
    },
    {
      "name": "CoMo Derby Dames",
      "country": "United States of America",
      "city": "Columbia",
      "lat": 39.2156,
      "long": -76.8583,
      "region": "USA",
      "logo": "como_derby_dames.jpg",
      "teams": [
        {
          "name": "All Stars",
          "ranking": null,
          "ranking_date": null,
          "fts_code": 7608
        }
      ]
    },
    {
      "name": "Confluence Crush Roller Derby",
      "country": "United States of America",
      "city": "St Louis",
      "lat": 38.6272,
      "long": -90.1979,
      "region": "USA",
      "logo": "confluence_crush_roller_derby.jpg",
      "teams": [
        {
          "name": "CCRD: Smitten Kittens",
          "ranking": null,
          "ranking_date": null,
          "fts_code": 25465
        },
        {
          "name": "Heartbreakers",
          "ranking": null,
          "ranking_date": null,
          "fts_code": 25344
        }
      ]
    },
    {
      "name": "Connecticut Roller Derby",
      "country": "United States of America",
      "city": "Waterbury",
      "lat": 41.5538,
      "long": -73.0439,
      "region": "USA",
      "logo": "connecticut_roller_derby.jpg",
      "teams": [
        {
          "name": "CTRD: Yankee Brutals",
          "ranking": null,
          "ranking_date": null,
          "fts_code": 6293
        },
        {
          "name": "All-Stars",
          "ranking": null,
          "ranking_date": null,
          "fts_code": 3432
        }
      ]
    },
    {
      "name": "Conroe Roller Derby",
      "country": "United States of America",
      "city": "Conroe",
      "lat": 30.3118,
      "long": -95.4561,
      "region": "USA",
      "logo": "conroe_roller_derby.jpg",
      "teams": [
        {
          "name": "Cutthroats",
          "ranking": null,
          "ranking_date": null,
          "fts_code": 49171
        }
      ]
    },
    {
      "name": "Coos County Roller Girls",
      "country": "United States of America",
      "city": "Errol",
      "lat": 44.7818,
      "long": -71.1386,
      "region": "USA",
      "logo": "coos_county_roller_girls.jpg",
      "teams": [
        {
          "name": "All-stars",
          "ranking": null,
          "ranking_date": null,
          "fts_code": 9311
        }
      ]
    },
    {
      "name": "Copper City Queens Roller Derby",
      "country": "United States of America",
      "city": "Butterfield",
      "lat": 44.2777,
      "long": -84.9534,
      "region": "USA",
      "logo": "copper_city_queens_roller_derby.jpg",
      "teams": [
        {
          "name": "All-stars",
          "ranking": null,
          "ranking_date": null,
          "fts_code": 49225
        }
      ]
    },
    {
      "name": "Cornfed Derby Dames",
      "country": "United States of America",
      "city": "Muncie",
      "lat": 40.1936,
      "long": -85.3866,
      "region": "USA",
      "logo": "cornfed_derby_dames.jpg",
      "teams": [
        {
          "name": "CFDD: Muncie MissFits",
          "ranking": null,
          "ranking_date": null,
          "fts_code": 75583
        },
        {
          "name": "All-stars",
          "ranking": null,
          "ranking_date": null,
          "fts_code": 13840
        }
      ]
    },
    {
      "name": "Cowboy Capital Rollergirls",
      "country": "United States of America",
      "city": "Stephenville Country Club Lake",
      "lat": 32.3133,
      "long": -98.1803,
      "region": "USA",
      "logo": "cowboy_capital_rollergirls.jpg",
      "teams": [
        {
          "name": "Pistol Annies",
          "ranking": null,
          "ranking_date": null,
          "fts_code": 14219
        }
      ]
    },
    {
      "name": "Crossroads City Derby",
      "country": "United States of America",
      "city": "Las Cruces",
      "lat": 32.314,
      "long": -106.78,
      "region": "USA",
      "logo": "crossroads_city_derby.jpg",
      "teams": [
        {
          "name": "Mayhem",
          "ranking": null,
          "ranking_date": null,
          "fts_code": 28005
        },
        {
          "name": "CCD: Spitfire Sallies",
          "ranking": null,
          "ranking_date": null,
          "fts_code": 68204
        },
        {
          "name": "CCD: Reguladies",
          "ranking": null,
          "ranking_date": null,
          "fts_code": 68203
        },
        {
          "name": "CCD: Santas",
          "ranking": null,
          "ranking_date": null,
          "fts_code": 27997
        },
        {
          "name": "Sucias",
          "ranking": null,
          "ranking_date": null,
          "fts_code": 20989
        }
      ]
    },
    {
      "name": "Crown City Rollerz",
      "country": "United States of America",
      "city": "Cortland",
      "lat": 42.6011,
      "long": -76.1805,
      "region": "USA",
      "logo": "crown_city_rollerz.jpg",
      "teams": [
        {
          "name": "The Royal Pains",
          "ranking": null,
          "ranking_date": null,
          "fts_code": 13405
        }
      ]
    },
    {
      "name": "Crude City Roller Derby",
      "country": "United States of America",
      "city": "Corpus Christi",
      "lat": 27.8002,
      "long": -97.3956,
      "region": "USA",
      "logo": "crude_city_roller_derby.jpg",
      "teams": [
        {
          "name": "All-stars",
          "ranking": null,
          "ranking_date": null,
          "fts_code": 24361
        }
      ]
    },
    {
      "name": "D-Town Derby Crew",
      "country": "United States of America",
      "city": "Littleton",
      "lat": 46.2311,
      "long": -67.8413,
      "region": "USA",
      "logo": "d-town_derby_crew.jpg",
      "teams": [
        {
          "name": "Urban Assault",
          "ranking": null,
          "ranking_date": null,
          "fts_code": 25008
        }
      ]
    },
    {
      "name": "Dakota City Demolition Crew",
      "country": "United States of America",
      "city": "Dakota City",
      "lat": 42.7221,
      "long": -94.1972,
      "region": "USA",
      "logo": "dakota_city_demolition_crew.jpg",
      "teams": [
        {
          "name": "Demolition Crew",
          "ranking": null,
          "ranking_date": null,
          "fts_code": 14697
        }
      ]
    },
    {
      "name": "Dallas Derby Devils",
      "country": "United States of America",
      "city": "Dallas",
      "lat": 32.7762,
      "long": -96.7969,
      "region": "USA",
      "logo": "dallas_derby_devils.jpg",
      "teams": [
        {
          "name": "DDD: Wrecking Crew",
          "ranking": null,
          "ranking_date": null,
          "fts_code": 15310
        },
        {
          "name": "DDD: Death Row Rumblers",
          "ranking": null,
          "ranking_date": null,
          "fts_code": 9432
        },
        {
          "name": "DDD: High Seas Hotties",
          "ranking": null,
          "ranking_date": null,
          "fts_code": 15312
        },
        {
          "name": "DDD: Suicide Shifters",
          "ranking": null,
          "ranking_date": null,
          "fts_code": 15313
        },
        {
          "name": "DDD: Slaughterers",
          "ranking": null,
          "ranking_date": null,
          "fts_code": 15311
        },
        {
          "name": "DDD: Battalion of Doom",
          "ranking": null,
          "ranking_date": null,
          "fts_code": 26763
        },
        {
          "name": "Army of Darkness",
          "ranking": null,
          "ranking_date": null,
          "fts_code": 3400
        }
      ]
    },
    {
      "name": "DaRANGED Rollergirls",
      "country": "United States of America",
      "city": "Elysburg",
      "lat": 40.8679,
      "long": -76.5492,
      "region": "USA",
      "logo": "daranged_rollergirls.jpg",
      "teams": [
        {
          "name": "All-stars",
          "ranking": null,
          "ranking_date": null,
          "fts_code": 41719
        }
      ]
    },
    {
      "name": "Dark Horse Roller Derby",
      "country": "United States of America",
      "city": "Sweetwater",
      "lat": 35.6014,
      "long": -84.4611,
      "region": "USA",
      "logo": "dark_horse_roller_derby.jpg",
      "teams": [
        {
          "name": "The Mustang Sallies",
          "ranking": null,
          "ranking_date": null,
          "fts_code": 63047
        }
      ]
    },
    {
      "name": "Dark River Derby Coalition",
      "country": "United States of America",
      "city": "Quincy",
      "lat": 42.2528,
      "long": -71.0023,
      "region": "USA",
      "logo": "dark_river_derby_coalition.jpg",
      "teams": [
        {
          "name": "All-stars",
          "ranking": null,
          "ranking_date": null,
          "fts_code": 14613
        }
      ]
    },
    {
      "name": "Darkside Derby",
      "country": "United States of America",
      "city": "Faxon",
      "lat": 41.2484,
      "long": -76.9772,
      "region": "USA",
      "logo": "darkside_derby.jpg",
      "teams": [
        {
          "name": "All-stars",
          "ranking": null,
          "ranking_date": null,
          "fts_code": 8634
        }
      ]
    },
    {
      "name": "Daville Roller Derby",
      "country": "United States of America",
      "city": "Fayetteville",
      "lat": 35.0525,
      "long": -78.8783,
      "region": "USA",
      "logo": "daville_roller_derby.jpg",
      "teams": [
        {
          "name": "Daville Vixens",
          "ranking": null,
          "ranking_date": null,
          "fts_code": 41844
        }
      ]
    },
    {
      "name": "DC Rollergirls",
      "country": "United States of America",
      "city": "Washington D.C.",
      "lat": 38.895,
      "long": -77.0363,
      "region": "USA",
      "logo": "dc_rollergirls.jpg",
      "teams": [
        {
          "name": "DC: Scare Force One",
          "ranking": null,
          "ranking_date": null,
          "fts_code": 9504
        },
        {
          "name": "DC: DC DemonCats",
          "ranking": null,
          "ranking_date": null,
          "fts_code": 9502
        },
        {
          "name": "DC: Majority Whips",
          "ranking": null,
          "ranking_date": null,
          "fts_code": 10148
        },
        {
          "name": "DC: Cherry Blossom Bombshells",
          "ranking": null,
          "ranking_date": null,
          "fts_code": 9503
        },
        {
          "name": "DC: National Maulers",
          "ranking": null,
          "ranking_date": null,
          "fts_code": 30425
        },
        {
          "name": "DC: Capitol Offenders",
          "ranking": null,
          "ranking_date": null,
          "fts_code": 10142
        },
        {
          "name": "All-stars",
          "ranking": null,
          "ranking_date": null,
          "fts_code": 3444
        }
      ]
    },
    {
      "name": "Dead Girl Derby",
      "country": "United States of America",
      "city": "Kansas City",
      "lat": 39.1001,
      "long": -94.5782,
      "region": "USA",
      "logo": "dead_girl_derby.jpg",
      "teams": [
        {
          "name": "DGD: Lovely Lethals",
          "ranking": null,
          "ranking_date": null,
          "fts_code": 32646
        },
        {
          "name": "DGD: Deadly Sirens",
          "ranking": null,
          "ranking_date": null,
          "fts_code": 32645
        },
        {
          "name": "DGD: Royal Pains",
          "ranking": null,
          "ranking_date": null,
          "fts_code": 32644
        },
        {
          "name": "DGD: Shotgun Sheilas",
          "ranking": null,
          "ranking_date": null,
          "fts_code": 32643
        },
        {
          "name": "All-stars",
          "ranking": null,
          "ranking_date": null,
          "fts_code": 32634
        }
      ]
    },
    {
      "name": "Deadly Rival Roller Derby",
      "country": "United States of America",
      "city": "Pinellas Park",
      "lat": 27.8428,
      "long": -82.6996,
      "region": "USA",
      "logo": "deadly_rival_roller_derby.jpg",
      "teams": [
        {
          "name": "DRRD: Cat O Strophix",
          "ranking": null,
          "ranking_date": null,
          "fts_code": 15849
        },
        {
          "name": "DRRD: Hot Rod Hotties",
          "ranking": null,
          "ranking_date": null,
          "fts_code": 15848
        },
        {
          "name": "All-stars",
          "ranking": null,
          "ranking_date": null,
          "fts_code": 15181
        }
      ]
    },
    {
      "name": "Deathrow Derby Dames",
      "country": "United States of America",
      "city": "Jacksonville",
      "lat": 30.3321,
      "long": -81.6557,
      "region": "USA",
      "logo": "deathrow_derby_dames.jpg",
      "teams": [
        {
          "name": "All-stars",
          "ranking": null,
          "ranking_date": null,
          "fts_code": 45991
        }
      ]
    },
    {
      "name": "Demolitia Derby Queens",
      "country": "United States of America",
      "city": "Lapeer",
      "lat": 42.442,
      "long": -76.0989,
      "region": "USA",
      "logo": "demolitia_derby_queens.jpg",
      "teams": [
        {
          "name": "All-stars",
          "ranking": null,
          "ranking_date": null,
          "fts_code": 51790
        }
      ]
    },